[
 {
  "id": 102,
  "address1": "서울특별시 마포구 월드컵로 72",
  "address2": "망원역 1번출구 앞",
  "latitude": 37.5556488,
  "longitude": 126.9106293,
  "type": "QR"
 },
 {
  "id": 103,
  "address1": "서울특별시 마포구 월드컵로 79",
  "address2": "망원역 2번출구 앞",
  "latitude": 37.55495071,
  "longitude": 126.9108353,
  "type": "QR"
 },
 {
  "id": 104,
  "address1": "서울특별시 마포구 양화로 59",
  "address2": "합정역 1번출구 앞",
  "latitude": 37.55062866,
  "longitude": 126.9149857,
  "type": "QR"
 },
 {
  "id": 105,
  "address1": "서울특별시 마포구 양화로 48",
  "address2": "합정역 5번출구 앞",
  "latitude": 37.55000687,
  "longitude": 126.9148254,
  "type": "QR"
 },
 {
  "id": 106,
  "address1": "서울특별시 마포구 독막로 4",
  "address2": "합정역 7번출구 앞",
  "latitude": 37.54864502,
  "longitude": 126.9128265,
  "type": "QR"
 },
 {
  "id": 107,
  "address1": "서울특별시 마포구 월드컵북로 35",
  "address2": "신한은행 서교동지점",
  "latitude": 37.55751038,
  "longitude": 126.9185028,
  "type": "QR"
 },
 {
  "id": 108,
  "address1": "서울특별시 마포구 양화로 93",
  "address2": "서교동 사거리",
  "latitude": 37.55274582,
  "longitude": 126.9186173,
  "type": "QR"
 },
 {
  "id": 109,
  "address1": "서울특별시 마포구 어울마당로 26",
  "address2": "제일빌딩 앞",
  "latitude": 37.54769135,
  "longitude": 126.9199829,
  "type": "QR"
 },
 {
  "id": 111,
  "address1": "서울특별시 마포구 와우산로 40",
  "address2": "상수역 2번출구 앞",
  "latitude": 37.54787064,
  "longitude": 126.9235306,
  "type": "QR"
 },
 {
  "id": 112,
  "address1": "서울특별시 마포구 와우산로 56",
  "address2": "극동방송국 앞",
  "latitude": 37.54920197,
  "longitude": 126.9232025,
  "type": "QR"
 },
 {
  "id": 113,
  "address1": "서울특별시 마포구 양화로 165",
  "address2": "홍대입구역 2번출구 앞",
  "latitude": 37.5574379,
  "longitude": 126.9238205,
  "type": "QR"
 },
 {
  "id": 114,
  "address1": "서울특별시 마포구 양화로18길 3",
  "address2": "홍대입구역 8번출구 앞",
  "latitude": 37.55706024,
  "longitude": 126.9244232,
  "type": "QR"
 },
 {
  "id": 115,
  "address1": "서울특별시 서대문구 연희로 7",
  "address2": "마스타 빌딩 앞",
  "latitude": 37.55893326,
  "longitude": 126.9271164,
  "type": "QR"
 },
 {
  "id": 116,
  "address1": "서울특별시 서대문구 동교로 290",
  "address2": "일진아이윌아파트 옆",
  "latitude": 37.56454086,
  "longitude": 126.9270706,
  "type": "QR"
 },
 {
  "id": 117,
  "address1": "마포구 서강로1길 30 ",
  "address2": "홍은사거리",
  "latitude": 37.59115982,
  "longitude": 126.94133,
  "type": "QR"
 },
 {
  "id": 118,
  "address1": "서울특별시 마포구 독막로 지하165",
  "address2": "광흥창역 2번출구 앞",
  "latitude": 37.54773331,
  "longitude": 126.9317627,
  "type": "QR"
 },
 {
  "id": 119,
  "address1": "서울특별시 마포구 창전로 30",
  "address2": "서강나루 공원",
  "latitude": 37.54528427,
  "longitude": 126.9310532,
  "type": "QR"
 },
 {
  "id": 120,
  "address1": "서울특별시 마포구 토정로 211",
  "address2": "신수동 사거리",
  "latitude": 37.54524231,
  "longitude": 126.9341126,
  "type": "LCD"
 },
 {
  "id": 121,
  "address1": "서울특별시 마포구 창전로 76",
  "address2": "마포소방서 앞",
  "latitude": 37.54976654,
  "longitude": 126.9331741,
  "type": "QR"
 },
 {
  "id": 122,
  "address1": "서울특별시 마포구 독막로 223-1",
  "address2": "신성기사식당 앞",
  "latitude": 37.54745865,
  "longitude": 126.9383774,
  "type": "QR"
 },
 {
  "id": 123,
  "address1": "서울특별시 서대문구 홍제동 277-23",
  "address2": "문화촌 공원",
  "latitude": 37.59432983,
  "longitude": 126.9473877,
  "type": "QR"
 },
 {
  "id": 124,
  "address1": "서울특별시 마포구 서강로16길 72",
  "address2": "서강대 정문 건너편",
  "latitude": 37.55113983,
  "longitude": 126.9369888,
  "type": "QR"
 },
 {
  "id": 125,
  "address1": "서울특별시 마포구 백범로 35",
  "address2": "서강대 남문 옆",
  "latitude": 37.54948425,
  "longitude": 126.9389496,
  "type": "QR"
 },
 {
  "id": 126,
  "address1": "서울특별시 마포구 대흥로 122",
  "address2": "서강대 후문 옆",
  "latitude": 37.55041122,
  "longitude": 126.9438477,
  "type": "QR"
 },
 {
  "id": 127,
  "address1": "서울특별시 마포구 백범로 10",
  "address2": "현대벤처빌 앞",
  "latitude": 37.5535202,
  "longitude": 126.9369507,
  "type": "QR"
 },
 {
  "id": 128,
  "address1": "서울특별시 서대문구 연세로 3-5",
  "address2": "신촌역(2호선) 1번출구 옆",
  "latitude": 37.55549622,
  "longitude": 126.9363403,
  "type": "QR"
 },
 {
  "id": 129,
  "address1": "서울특별시 마포구 신촌로 106",
  "address2": "신촌역(2호선) 6번출구 옆",
  "latitude": 37.55505371,
  "longitude": 126.9375687,
  "type": "QR"
 },
 {
  "id": 130,
  "address1": "서울특별시 마포구 신촌로 94",
  "address2": "신촌역(2호선) 7번출구 앞",
  "latitude": 37.55485916,
  "longitude": 126.9361572,
  "type": "LCD"
 },
 {
  "id": 131,
  "address1": "서울특별시 서대문구 증가로 264",
  "address2": "증산2교",
  "latitude": 37.5841713,
  "longitude": 126.9111023,
  "type": "QR"
 },
 {
  "id": 133,
  "address1": "서울특별시 서대문구 불광천길 150",
  "address2": "해담는다리",
  "latitude": 37.58203125,
  "longitude": 126.9089966,
  "type": "QR"
 },
 {
  "id": 134,
  "address1": "서울특별시 서대문구 명물길 33",
  "address2": "연세로 명물길",
  "latitude": 37.55789185,
  "longitude": 126.9380798,
  "type": "QR"
 },
 {
  "id": 135,
  "address1": "서대문구 창천동 31-69",
  "address2": "명물길 원형무대 앞",
  "latitude": 37.5591011,
  "longitude": 126.9391785,
  "type": "LCD"
 },
 {
  "id": 137,
  "address1": "서울특별시 서대문구 연세로2다길 58",
  "address2": "신촌기차역입구 교차로",
  "latitude": 37.55681229,
  "longitude": 126.9431839,
  "type": "QR"
 },
 {
  "id": 138,
  "address1": "서울특별시 서대문구 증가로 264",
  "address2": "신촌동 제1공영주차장 앞",
  "latitude": 37.5591774,
  "longitude": 126.9345245,
  "type": "LCD"
 },
 {
  "id": 139,
  "address1": "서울특별시 서대문구 연세로 42",
  "address2": "연세대 정문 건너편",
  "latitude": 37.55986404,
  "longitude": 126.9344177,
  "type": "QR"
 },
 {
  "id": 140,
  "address1": "서울특별시 서대문구 연세로 50-1",
  "address2": "이화여대 후문",
  "latitude": 37.560009,
  "longitude": 126.9407349,
  "type": "QR"
 },
 {
  "id": 141,
  "address1": "서울특별시 서대문구 연세로 50",
  "address2": "연대 대운동장 옆",
  "latitude": 37.56238174,
  "longitude": 126.9326477,
  "type": "QR"
 },
 {
  "id": 142,
  "address1": "서울특별시 마포구 아현동 329-15",
  "address2": "아현역 4번출구 앞",
  "latitude": 37.55720139,
  "longitude": 126.9556656,
  "type": "LCD"
 },
 {
  "id": 143,
  "address1": "서울특별시 마포구 공덕동 257-88",
  "address2": "공덕역 2번출구",
  "latitude": 37.54457855,
  "longitude": 126.9502182,
  "type": "LCD"
 },
 {
  "id": 144,
  "address1": "서울특별시 마포구 공덕동 438-5",
  "address2": "공덕역 8번출구",
  "latitude": 37.5435791,
  "longitude": 126.9513245,
  "type": "LCD"
 },
 {
  "id": 145,
  "address1": "서울특별시 마포구 공덕동 237-9",
  "address2": "공덕역 5번출구",
  "latitude": 37.54425049,
  "longitude": 126.9516373,
  "type": "LCD"
 },
 {
  "id": 146,
  "address1": "서울특별시 마포구 도화동 555-2",
  "address2": "마포역 2번출구 뒤",
  "latitude": 37.53993607,
  "longitude": 126.9458237,
  "type": "LCD"
 },
 {
  "id": 147,
  "address1": "서울특별시 마포구 도화동 292-29",
  "address2": "마포역 4번출구 뒤",
  "latitude": 37.53927231,
  "longitude": 126.9459152,
  "type": "LCD"
 },
 {
  "id": 148,
  "address1": "서울특별시 마포구 용강동 234-1",
  "address2": "용강동 주민센터 앞",
  "latitude": 37.54234695,
  "longitude": 126.9430237,
  "type": "LCD"
 },
 {
  "id": 150,
  "address1": "서울특별시 마포구 노고산동 112-13",
  "address2": "서강대역 2번출구 앞",
  "latitude": 37.55295563,
  "longitude": 126.9343414,
  "type": "LCD"
 },
 {
  "id": 153,
  "address1": "서울특별시 마포구 성산동 54-17",
  "address2": "성산2교 사거리",
  "latitude": 37.56469727,
  "longitude": 126.9126129,
  "type": "LCD"
 },
 {
  "id": 154,
  "address1": "서울특별시 마포구 망원동 477-23",
  "address2": "마포구청역",
  "latitude": 37.56090927,
  "longitude": 126.9054947,
  "type": "LCD"
 },
 {
  "id": 155,
  "address1": "서울특별시 마포구 성산동123-29",
  "address2": "가좌역1 번출구 뒤",
  "latitude": 37.56829453,
  "longitude": 126.9150467,
  "type": "QR"
 },
 {
  "id": 156,
  "address1": "서울특별시 마포구 공덕동 105-11",
  "address2": "서울서부지방법원 앞",
  "latitude": 37.54933167,
  "longitude": 126.9549179,
  "type": "LCD"
 },
 {
  "id": 157,
  "address1": "서울특별시 마포구 아현동 607-1",
  "address2": "애오개역 4번출구 앞",
  "latitude": 37.5530014,
  "longitude": 126.9566879,
  "type": "LCD"
 },
 {
  "id": 159,
  "address1": "서울특별시 서대문구 대현동 60-11",
  "address2": "이대역 4번 출구",
  "latitude": 37.55695343,
  "longitude": 126.9463425,
  "type": "QR"
 },
 {
  "id": 160,
  "address1": "서울특별시 서대문구 북아현동 251-78",
  "address2": "북아현동 가구거리",
  "latitude": 37.55754852,
  "longitude": 126.9593811,
  "type": "LCD"
 },
 {
  "id": 161,
  "address1": "서울특별시 서대문구 통일로 380-4",
  "address2": "무악재역1번 출구",
  "latitude": 37.58224487,
  "longitude": 126.9506455,
  "type": "LCD"
 },
 {
  "id": 162,
  "address1": "서울특별시 서대문구 대신동 143-1",
  "address2": "봉원고가차도 밑",
  "latitude": 37.56526947,
  "longitude": 126.9462433,
  "type": "LCD"
 },
 {
  "id": 163,
  "address1": "서울특별시 서대문구 홍은동 산25-3",
  "address2": "명지전문대학교 정문 앞",
  "latitude": 37.58369827,
  "longitude": 126.9249649,
  "type": "QR"
 },
 {
  "id": 164,
  "address1": "서울특별시 서대문구 북가좌동 477-1",
  "address2": "북가좌1동 주민센터",
  "latitude": 37.57447815,
  "longitude": 126.9100494,
  "type": "LCD"
 },
 {
  "id": 165,
  "address1": "서울특별시 서대문구 북가좌동 470-1",
  "address2": "중앙근린공원",
  "latitude": 37.57513809,
  "longitude": 126.9139404,
  "type": "LCD"
 },
 {
  "id": 166,
  "address1": "서울특별시 서대문구 연희동 530",
  "address2": "가재울 초등학교",
  "latitude": 37.57381821,
  "longitude": 126.9192352,
  "type": "LCD"
 },
 {
  "id": 167,
  "address1": "서울특별시 서대문구 북가좌동 70-119",
  "address2": "연가초등학교 옆",
  "latitude": 37.57946014,
  "longitude": 126.9171295,
  "type": "LCD"
 },
 {
  "id": 169,
  "address1": "서울특별시 서대문구 북가좌동 400",
  "address2": "북가좌 삼거리",
  "latitude": 37.57300186,
  "longitude": 126.9077988,
  "type": "LCD"
 },
 {
  "id": 170,
  "address1": "서울특별시 서대문구 남가좌동 124",
  "address2": "DMC파크뷰자이아파트 302동 앞",
  "latitude": 37.57311249,
  "longitude": 126.9224472,
  "type": "LCD"
 },
 {
  "id": 171,
  "address1": "미근동 317-1",
  "address2": "임광빌딩 앞",
  "latitude": 37.56472397,
  "longitude": 126.9672775,
  "type": "LCD"
 },
 {
  "id": 173,
  "address1": "서울특별시 서대문구 충정로2가 138",
  "address2": "서대문역 8번출구 앞",
  "latitude": 37.56477737,
  "longitude": 126.9661484,
  "type": "LCD"
 },
 {
  "id": 175,
  "address1": "서울특별시 서대문구 홍은동 387-16",
  "address2": "홍연2교옆",
  "latitude": 37.57806778,
  "longitude": 126.9308853,
  "type": "LCD"
 },
 {
  "id": 176,
  "address1": "서울특별시 서대문구 거북골로 34",
  "address2": "명지대학교 도서관",
  "latitude": 37.58109665,
  "longitude": 126.9240265,
  "type": "LCD"
 },
 {
  "id": 177,
  "address1": "서울특별시 서대문구 거북골로19길 20",
  "address2": "북가좌 초등학교",
  "latitude": 37.57767487,
  "longitude": 126.9098053,
  "type": "LCD"
 },
 {
  "id": 178,
  "address1": "서울특별시 서대문구 북가좌동 352-9",
  "address2": "증산3교 앞",
  "latitude": 37.57987595,
  "longitude": 126.9063492,
  "type": "LCD"
 },
 {
  "id": 179,
  "address1": "서울특별시 서대문구 남가좌동 293-3 ",
  "address2": "가좌역 4번출구 앞",
  "latitude": 37.56912231,
  "longitude": 126.9147949,
  "type": "LCD"
 },
 {
  "id": 180,
  "address1": "서울특별시 서대문구 충정로3가 56-1",
  "address2": "충정로역 7번출구 아래",
  "latitude": 37.55996704,
  "longitude": 126.9624634,
  "type": "LCD"
 },
 {
  "id": 181,
  "address1": "서울특별시 마포구 마포나루길 467",
  "address2": "망원초록길 입구",
  "latitude": 37.55134201,
  "longitude": 126.9026718,
  "type": "LCD"
 },
 {
  "id": 182,
  "address1": "서울특별시?마포구?동교로?8",
  "address2": "망원2빗물펌프장 앞",
  "latitude": 37.5513649,
  "longitude": 126.9030609,
  "type": "QR"
 },
 {
  "id": 183,
  "address1": "서울특별시 마포구 연남로 30",
  "address2": "하늘채코오롱아파트 건너편",
  "latitude": 37.56516647,
  "longitude": 126.9193955,
  "type": "LCD"
 },
 {
  "id": 184,
  "address1": "서울특별시 마포구 월드컵로 119",
  "address2": "7번가피자 서교망원점",
  "latitude": 37.55894852,
  "longitude": 126.907753,
  "type": "LCD"
 },
 {
  "id": 185,
  "address1": "서울특별시 마포구 현석동 106-32",
  "address2": "마포 신수공원 앞",
  "latitude": 37.54254532,
  "longitude": 126.9342957,
  "type": "LCD"
 },
 {
  "id": 186,
  "address1": "서울특별시 마포구 하늘공원로 108-1",
  "address2": "월드컵공원",
  "latitude": 37.56396484,
  "longitude": 126.8982086,
  "type": "QR"
 },
 {
  "id": 188,
  "address1": "서울특별시 서대문구 연희로37안길 51",
  "address2": "홍은동 정원여중 입구",
  "latitude": 37.58638763,
  "longitude": 126.9351273,
  "type": "QR"
 },
 {
  "id": 191,
  "address1": "서울특별시 서대문구 응암로 66",
  "address2": "서우빌딩",
  "latitude": 37.57889175,
  "longitude": 126.9107361,
  "type": "LCD"
 },
 {
  "id": 192,
  "address1": "서울특별시 서대문구 연희동 519-7",
  "address2": "연서어린이공원",
  "latitude": 37.57222748,
  "longitude": 126.9230652,
  "type": "LCD"
 },
 {
  "id": 194,
  "address1": "서울특별시 서대문구 불광천길 36",
  "address2": "증산교 앞",
  "latitude": 37.57731628,
  "longitude": 126.9029694,
  "type": "LCD"
 },
 {
  "id": 195,
  "address1": "서울특별시 서대문구 연희동 446-76",
  "address2": "모래내고가차도",
  "latitude": 37.56765747,
  "longitude": 126.9178085,
  "type": "LCD"
 },
 {
  "id": 196,
  "address1": "서울특별시 서대문구 홍제천로 48",
  "address2": "연희교차로 인근",
  "latitude": 37.56612015,
  "longitude": 126.9258957,
  "type": "LCD"
 },
 {
  "id": 198,
  "address1": "서울특별시 서대문구 충정로3가 155-4",
  "address2": "충정2교",
  "latitude": 37.5621376,
  "longitude": 126.9637756,
  "type": "QR"
 },
 {
  "id": 199,
  "address1": "서울특별시 마포구 성산동 515",
  "address2": "서울 월드컵 경기장",
  "latitude": 37.56684494,
  "longitude": 126.8964462,
  "type": "LCD"
 },
 {
  "id": 200,
  "address1": "서울특별시 영등포구 의사당대로 1",
  "address2": "국회의원회관",
  "latitude": 37.52841568,
  "longitude": 126.9139175,
  "type": "QR"
 },
 {
  "id": 201,
  "address1": "서울특별시 영등포구 국회대로76길 10",
  "address2": "진미파라곤 앞",
  "latitude": 37.53123856,
  "longitude": 126.9213333,
  "type": "QR"
 },
 {
  "id": 202,
  "address1": "서울특별시 영등포구 여의공원로 101",
  "address2": "국민일보 앞",
  "latitude": 37.52881622,
  "longitude": 126.92453,
  "type": "QR"
 },
 {
  "id": 203,
  "address1": "서울특별시 영등포구 국회대로 지하758",
  "address2": "국회의사당역 3번출구 옆",
  "latitude": 37.5280571,
  "longitude": 126.9187012,
  "type": "QR"
 },
 {
  "id": 204,
  "address1": "서울특별시 영등포구 의사당대로 8",
  "address2": "국회의사당역 5번출구 옆",
  "latitude": 37.52816391,
  "longitude": 126.9170227,
  "type": "QR"
 },
 {
  "id": 205,
  "address1": "서울특별시 영등포구 의사당대로 97",
  "address2": "산업은행 앞",
  "latitude": 37.52626419,
  "longitude": 126.9205093,
  "type": "QR"
 },
 {
  "id": 206,
  "address1": "서울특별시 영등포구 여의공원로 13",
  "address2": "KBS 앞",
  "latitude": 37.52466583,
  "longitude": 126.9180222,
  "type": "QR"
 },
 {
  "id": 207,
  "address1": "서울특별시 영등포구 여의동로 지하343",
  "address2": "여의나루역 1번출구 앞",
  "latitude": 37.52715683,
  "longitude": 126.9319,
  "type": "LCD"
 },
 {
  "id": 209,
  "address1": "서울특별시 영등포구 국제금융로 24",
  "address2": "유진투자증권빌딩 앞",
  "latitude": 37.52461243,
  "longitude": 126.9278336,
  "type": "QR"
 },
 {
  "id": 211,
  "address1": "서울특별시 영등포구 국회대로68길 7",
  "address2": "여의도역 4번출구 옆",
  "latitude": 37.52222824,
  "longitude": 126.9246368,
  "type": "LCD"
 },
 {
  "id": 212,
  "address1": "서울특별시 영등포구 의사당대로 88",
  "address2": "여의도역 1번출구 옆",
  "latitude": 37.5213623,
  "longitude": 126.9234619,
  "type": "LCD"
 },
 {
  "id": 213,
  "address1": "서울특별시 영등포구 여의대로 38",
  "address2": "KT앞",
  "latitude": 37.52190781,
  "longitude": 126.9189529,
  "type": "QR"
 },
 {
  "id": 214,
  "address1": "서울특별시 영등포구 여의대로 38",
  "address2": "금융감독원 앞",
  "latitude": 37.5230217,
  "longitude": 126.9208374,
  "type": "QR"
 },
 {
  "id": 215,
  "address1": "서울특별시 영등포구 국제금융로7길 37",
  "address2": "여의도고교 앞",
  "latitude": 37.52483749,
  "longitude": 126.934906,
  "type": "QR"
 },
 {
  "id": 217,
  "address1": "서울특별시 영등포구 국제금융로8길 2",
  "address2": "NH농협은행 앞",
  "latitude": 37.52207947,
  "longitude": 126.9303665,
  "type": "QR"
 },
 {
  "id": 219,
  "address1": "서울특별시 영등포구 의사당대로 127",
  "address2": "롯데캐슬엠파이어 옆",
  "latitude": 37.52069473,
  "longitude": 126.9258347,
  "type": "QR"
 },
 {
  "id": 220,
  "address1": "서울특별시 영등포구 의사당대로 110",
  "address2": "미성아파트 A동 앞",
  "latitude": 37.5193634,
  "longitude": 126.9260483,
  "type": "QR"
 },
 {
  "id": 221,
  "address1": "서울특별시 영등포구 여의대방로 439",
  "address2": "여의도초교 앞",
  "latitude": 37.52267456,
  "longitude": 126.9377899,
  "type": "QR"
 },
 {
  "id": 222,
  "address1": "서울특별시 영등포구 63로 45",
  "address2": "시범아파트버스정류장 옆",
  "latitude": 37.51943588,
  "longitude": 126.9375992,
  "type": "QR"
 },
 {
  "id": 223,
  "address1": "서울특별시 영등포구 국제금융로 108-6",
  "address2": "진주아파트상가 앞",
  "latitude": 37.51931381,
  "longitude": 126.9331665,
  "type": "QR"
 },
 {
  "id": 224,
  "address1": "서울특별시 영등포구 국제금융로 86",
  "address2": "롯데캐슬 앞",
  "latitude": 37.520088200000004,
  "longitude": 126.9323654,
  "type": "QR"
 },
 {
  "id": 225,
  "address1": "서울특별시 영등포구 의사당대로 지하166",
  "address2": "앙카라공원 앞",
  "latitude": 37.51736832,
  "longitude": 126.9292526,
  "type": "QR"
 },
 {
  "id": 226,
  "address1": "서울특별시 영등포구 의사당대로 지하166",
  "address2": "샛강역 1번출구 앞",
  "latitude": 37.51776505,
  "longitude": 126.9284134,
  "type": "QR"
 },
 {
  "id": 227,
  "address1": "서울특별시 영등포구 양화동 17-4",
  "address2": "양평2나들목 보행통로 입구",
  "latitude": 37.54466629,
  "longitude": 126.8883591,
  "type": "LCD"
 },
 {
  "id": 228,
  "address1": "서울특별시 영등포구 양평동4가 202-1",
  "address2": "선유도역 3번출구 앞",
  "latitude": 37.53845978,
  "longitude": 126.8945084,
  "type": "QR"
 },
 {
  "id": 229,
  "address1": "서울특별시 영등포구 양평동4가 20-4",
  "address2": "양평1 보행육교 앞",
  "latitude": 37.53587341,
  "longitude": 126.8921814,
  "type": "LCD"
 },
 {
  "id": 230,
  "address1": "서울특별시 영등포구 당산로 111-2",
  "address2": "영등포구청역 1번출구",
  "latitude": 37.52463531,
  "longitude": 126.8962174,
  "type": "LCD"
 },
 {
  "id": 231,
  "address1": "서울특별시 영등포구 양평동1가 115-2",
  "address2": "남부고용노동지청 남측",
  "latitude": 37.52450562,
  "longitude": 126.8918228,
  "type": "LCD"
 },
 {
  "id": 232,
  "address1": "서울특별시 영등포구 양평동3가 14-1",
  "address2": "양평우림 이비즈센타 앞",
  "latitude": 37.52565002,
  "longitude": 126.8878174,
  "type": "LCD"
 },
 {
  "id": 233,
  "address1": "서울특별시 영등포구 양평동3가 60-1",
  "address2": "양평1동 YP센터 앞",
  "latitude": 37.52848816,
  "longitude": 126.8916473,
  "type": "LCD"
 },
 {
  "id": 234,
  "address1": "서울특별시 영등포구 신길동 399 ",
  "address2": "영등포구민체육센터 앞",
  "latitude": 37.50046158,
  "longitude": 126.9058456,
  "type": "LCD"
 },
 {
  "id": 235,
  "address1": "서울특별시 영등포구 신길동 250-4 ",
  "address2": "신길동 우리은행 옆",
  "latitude": 37.50456619,
  "longitude": 126.9102325,
  "type": "LCD"
 },
 {
  "id": 236,
  "address1": "서울특별시 영등포구 문래동3가 68-1",
  "address2": "문래동자이아파트 앞",
  "latitude": 37.51615524,
  "longitude": 126.8946152,
  "type": "LCD"
 },
 {
  "id": 237,
  "address1": "서울특별시 영등포구 신길동 4490 ",
  "address2": "보라매 두산위브 건너편",
  "latitude": 37.49651337,
  "longitude": 126.9148026,
  "type": "LCD"
 },
 {
  "id": 238,
  "address1": "서울특별시 영등포구 당산동4가 96-2",
  "address2": "제2구민체육센타 앞",
  "latitude": 37.52638626,
  "longitude": 126.9027557,
  "type": "LCD"
 },
 {
  "id": 239,
  "address1": "서울특별시 영등포구 영등포동7가 58-2",
  "address2": "유스호스텔 앞",
  "latitude": 37.5258522,
  "longitude": 126.9032822,
  "type": "LCD"
 },
 {
  "id": 240,
  "address1": "서울특별시 영등포구 문래동3가 55-12 ",
  "address2": "문래역 4번출구 앞",
  "latitude": 37.51873779,
  "longitude": 126.8955765,
  "type": "LCD"
 },
 {
  "id": 241,
  "address1": "서울특별시 영등포구 도림동 255-2 ",
  "address2": "신길우성1차아파트 앞 공원",
  "latitude": 37.50501633,
  "longitude": 126.8985367,
  "type": "QR"
 },
 {
  "id": 242,
  "address1": "서울특별시 영등포구 신길동 215-28 ",
  "address2": "신길선원가와인아파트 앞",
  "latitude": 37.51093292,
  "longitude": 126.9102249,
  "type": "LCD"
 },
 {
  "id": 243,
  "address1": "서울특별시 영등포구 양평동3가 48-1",
  "address2": "이앤씨드림타워 앞",
  "latitude": 37.52708435,
  "longitude": 126.8913803,
  "type": "LCD"
 },
 {
  "id": 244,
  "address1": "서울특별시 영등포구 영등포동8가 82-4 ",
  "address2": "영등포삼환아파트 앞",
  "latitude": 37.53007889,
  "longitude": 126.9057083,
  "type": "LCD"
 },
 {
  "id": 245,
  "address1": "서울특별시 영등포구 당산동4가 35-24 ",
  "address2": "삼성생명 당산사옥 앞",
  "latitude": 37.52826309,
  "longitude": 126.8966293,
  "type": "LCD"
 },
 {
  "id": 247,
  "address1": "서울특별시 영등포구 당산동5가 14-4",
  "address2": "당산역 10번출구 앞",
  "latitude": 37.53368759,
  "longitude": 126.9021072,
  "type": "QR"
 },
 {
  "id": 248,
  "address1": "서울특별시 영등포구 여의도동8-13",
  "address2": "초원아파트 앞",
  "latitude": 37.53105545,
  "longitude": 126.9242096,
  "type": "LCD"
 },
 {
  "id": 249,
  "address1": "서울특별시 영등포구 여의도동 8",
  "address2": "여의도중학교 옆",
  "latitude": 37.52434921,
  "longitude": 126.9361191,
  "type": "QR"
 },
 {
  "id": 250,
  "address1": "서울특별시 영등포구 신길동 249",
  "address2": "대림아파트 사거리",
  "latitude": 37.50764084,
  "longitude": 126.9230804,
  "type": "LCD"
 },
 {
  "id": 251,
  "address1": "서울특별시 영등포구 신길동853",
  "address2": "서울지방병무청 버스정류장",
  "latitude": 37.50449371,
  "longitude": 126.9219513,
  "type": "LCD"
 },
 {
  "id": 252,
  "address1": "서울특별시 영등포구 신길동4884",
  "address2": "보라매역4번출구",
  "latitude": 37.49982834,
  "longitude": 126.9199448,
  "type": "LCD"
 },
 {
  "id": 253,
  "address1": "서울특별시 영등포구 신길동3596",
  "address2": "신풍역 5번출구 인근",
  "latitude": 37.5006485,
  "longitude": 126.9095154,
  "type": "LCD"
 },
 {
  "id": 254,
  "address1": "서울특별시 영등포구 신길동263-76",
  "address2": "도림신협 앞",
  "latitude": 37.50380325,
  "longitude": 126.9034195,
  "type": "LCD"
 },
 {
  "id": 255,
  "address1": "서울특별시 영등포구 신길동373-1",
  "address2": "도림사거리",
  "latitude": 37.50657272,
  "longitude": 126.9011307,
  "type": "LCD"
 },
 {
  "id": 256,
  "address1": "서울특별시 영등포구 도림동 159-70",
  "address2": "동아에코빌입구",
  "latitude": 37.50947571,
  "longitude": 126.8992996,
  "type": "LCD"
 },
 {
  "id": 258,
  "address1": "서울특별시 영등포구 영등포동1가35",
  "address2": "신길역3번출구",
  "latitude": 37.51769257,
  "longitude": 126.914299,
  "type": "LCD"
 },
 {
  "id": 259,
  "address1": "서울특별시 영등포구 신길동1368",
  "address2": "대방역6번출구",
  "latitude": 37.51359177,
  "longitude": 126.9259338,
  "type": "LCD"
 },
 {
  "id": 260,
  "address1": "서울특별시 영등포구 여의서로 160",
  "address2": "여의도 마리나선착장 앞",
  "latitude": 37.53365707,
  "longitude": 126.9121628,
  "type": "LCD"
 },
 {
  "id": 262,
  "address1": "서울특별시 영등포구 문래로 56",
  "address2": "영문초등학교 사거리",
  "latitude": 37.51992798,
  "longitude": 126.889183,
  "type": "LCD"
 },
 {
  "id": 263,
  "address1": "서울특별시 영등포구 선유로 34",
  "address2": "근로자회관 사거리",
  "latitude": 37.51715088,
  "longitude": 126.8886261,
  "type": "LCD"
 },
 {
  "id": 264,
  "address1": "서울특별시 영등포구 영등포로 96",
  "address2": "교보생명보험 앞",
  "latitude": 37.52193069,
  "longitude": 126.8916168,
  "type": "LCD"
 },
 {
  "id": 265,
  "address1": "서울특별시 영등포구 영등포로 124",
  "address2": "영등포유통상가 사거리",
  "latitude": 37.52113342,
  "longitude": 126.8965378,
  "type": "LCD"
 },
 {
  "id": 266,
  "address1": "서울특별시 영등포구 영등포로 177",
  "address2": "영등포청과시장 사거리",
  "latitude": 37.52029419,
  "longitude": 126.9011917,
  "type": "LCD"
 },
 {
  "id": 267,
  "address1": "서울특별시 영등포구 양평로 76",
  "address2": "삼성화재 사옥 옆",
  "latitude": 37.53596115,
  "longitude": 126.8983002,
  "type": "LCD"
 },
 {
  "id": 268,
  "address1": "서울특별시 영등포구 양평로 58",
  "address2": "그랜드컨벤션센터 앞",
  "latitude": 37.53471756,
  "longitude": 126.9000015,
  "type": "LCD"
 },
 {
  "id": 270,
  "address1": "서울특별시 영등포구 여의나루로 76",
  "address2": "증권거래소후문교차로",
  "latitude": 37.52234268,
  "longitude": 126.9271011,
  "type": "QR"
 },
 {
  "id": 271,
  "address1": "서울특별시 영등포구 여의동로 48",
  "address2": "샛강생태공원방문자센터 앞",
  "latitude": 37.51896286,
  "longitude": 126.9216156,
  "type": "LCD"
 },
 {
  "id": 272,
  "address1": "서울특별시 영등포구 당산로52길 3",
  "address2": "당산육갑문",
  "latitude": 37.53533936,
  "longitude": 126.9036789,
  "type": "LCD"
 },
 {
  "id": 274,
  "address1": "서울특별시 영등포구 경인로 846",
  "address2": "영등포역지하쇼핑센타 5번출구",
  "latitude": 37.51626968,
  "longitude": 126.9068604,
  "type": "LCD"
 },
 {
  "id": 275,
  "address1": "서울특별시 영등포구 선유서로 76",
  "address2": "신동아아파트",
  "latitude": 37.52222061,
  "longitude": 126.885582,
  "type": "LCD"
 },
 {
  "id": 276,
  "address1": "서울특별시 영등포구 경인로112길 1",
  "address2": "SK 영등포주유소",
  "latitude": 37.51828384,
  "longitude": 126.9126358,
  "type": "LCD"
 },
 {
  "id": 277,
  "address1": "서울특별시 영등포구 영중로 22",
  "address2": "영등포뉴타운지하상가 2번게이트",
  "latitude": 37.52011871,
  "longitude": 126.9051666,
  "type": "LCD"
 },
 {
  "id": 278,
  "address1": "서울특별시 영등포구 도영로 18",
  "address2": "쌍용플레티넘오피스텔",
  "latitude": 37.50793076,
  "longitude": 126.8952332,
  "type": "LCD"
 },
 {
  "id": 279,
  "address1": "서울특별시 영등포구 도신로29길 28",
  "address2": "영등포 푸르지오 아파트",
  "latitude": 37.51322937,
  "longitude": 126.9044647,
  "type": "QR"
 },
 {
  "id": 280,
  "address1": "양평동 3가 80-9",
  "address2": "양평동6차현대아파트 앞",
  "latitude": 37.53210068,
  "longitude": 126.8944397,
  "type": "LCD"
 },
 {
  "id": 281,
  "address1": "가마산로 311 앞 복개천 보도",
  "address2": "신동아아파트 앞",
  "latitude": 37.49824142,
  "longitude": 126.8939819,
  "type": "LCD"
 },
 {
  "id": 282,
  "address1": "시흥대로 617",
  "address2": "신한은행 대림동지점",
  "latitude": 37.48752975,
  "longitude": 126.9048767,
  "type": "LCD"
 },
 {
  "id": 283,
  "address1": "영등포구 영등포동7가 3-2",
  "address2": "아크로타워 스퀘어(영등포시장)",
  "latitude": 37.52251816,
  "longitude": 126.9072189,
  "type": "LCD"
 },
 {
  "id": 284,
  "address1": "문래로 180",
  "address2": "센트럴 푸르지오 시티 앞",
  "latitude": 37.51821136,
  "longitude": 126.9022293,
  "type": "LCD"
 },
 {
  "id": 285,
  "address1": "가마산로 343",
  "address2": "대림3동사거리(하나은행)",
  "latitude": 37.49985886,
  "longitude": 126.8972397,
  "type": "LCD"
 },
 {
  "id": 286,
  "address1": "대림로 153 ",
  "address2": "우성아파트 교차로",
  "latitude": 37.49457169,
  "longitude": 126.8997498,
  "type": "LCD"
 },
 {
  "id": 287,
  "address1": "영등포동8가 29-1",
  "address2": "영등포전화국사거리 (서강어린이공원)",
  "latitude": 37.52576828,
  "longitude": 126.9057388,
  "type": "LCD"
 },
 {
  "id": 288,
  "address1": "당산로31길 32 서측(구청별관 주변)",
  "address2": "쌍용예가(구청별관)",
  "latitude": 37.52809906,
  "longitude": 126.8933868,
  "type": "LCD"
 },
 {
  "id": 289,
  "address1": "가마산로 352 커피베이 앞",
  "address2": "대림3동사거리",
  "latitude": 37.49980927,
  "longitude": 126.8980026,
  "type": "LCD"
 },
 {
  "id": 290,
  "address1": "영등포구 당산동4가 89-1",
  "address2": "당산동 SK V1 빌딩",
  "latitude": 37.5315094,
  "longitude": 126.8978272,
  "type": "LCD"
 },
 {
  "id": 291,
  "address1": "영등포구 문래동3가 55-21",
  "address2": "문래동 하이테크 시티",
  "latitude": 37.51385117,
  "longitude": 126.89888,
  "type": "LCD"
 },
 {
  "id": 292,
  "address1": "영등포구 영등포동 647-3",
  "address2": "영일 어린이공원",
  "latitude": 37.51012039,
  "longitude": 126.904068,
  "type": "LCD"
 },
 {
  "id": 293,
  "address1": "영등포구 당산동 121-258",
  "address2": "충북 미래관",
  "latitude": 37.52917099,
  "longitude": 126.9075775,
  "type": "LCD"
 },
 {
  "id": 295,
  "address1": "영등포구 신길로 275",
  "address2": "영등포공원 분수대 앞",
  "latitude": 37.51481247,
  "longitude": 126.911705,
  "type": "QR"
 },
 {
  "id": 296,
  "address1": "영등포구 영중로 119",
  "address2": "KT플라자 영등포점",
  "latitude": 37.52630234,
  "longitude": 126.9053803,
  "type": "QR"
 },
 {
  "id": 297,
  "address1": "영등포구 여의동로 330",
  "address2": "국회3문",
  "latitude": 37.52863693,
  "longitude": 126.912674,
  "type": "QR"
 },
 {
  "id": 298,
  "address1": "영등포구 여의도동 1-877",
  "address2": "KBS 연구동 건너편",
  "latitude": 37.52750778,
  "longitude": 126.914299,
  "type": "QR"
 },
 {
  "id": 299,
  "address1": "영등포구 여의도동 8",
  "address2": "여의도 순복음교회",
  "latitude": 37.53179169,
  "longitude": 126.9224548,
  "type": "QR"
 },
 {
  "id": 300,
  "address1": "서울특별시 중구 정동길 2-1",
  "address2": "정동사거리",
  "latitude": 37.56805038,
  "longitude": 126.9692307,
  "type": "QR"
 },
 {
  "id": 301,
  "address1": "서울특별시 종로구 사직로 지하130",
  "address2": "경복궁역 7번출구 앞",
  "latitude": 37.57579422,
  "longitude": 126.9714508,
  "type": "LCD"
 },
 {
  "id": 302,
  "address1": "서울특별시 종로구 사직로 지하130",
  "address2": "경복궁역 4번출구 뒤",
  "latitude": 37.57594681,
  "longitude": 126.9740601,
  "type": "QR"
 },
 {
  "id": 303,
  "address1": "서울특별시 종로구 세종대로 지하189",
  "address2": "광화문역 1번출구 앞",
  "latitude": 37.57176971,
  "longitude": 126.9746628,
  "type": "QR"
 },
 {
  "id": 306,
  "address1": "서울특별시 종로구 세종대로 지하172",
  "address2": "광화문역 7번출구 앞",
  "latitude": 37.57080841,
  "longitude": 126.9764328,
  "type": "LCD"
 },
 {
  "id": 307,
  "address1": "서울특별시 종로구 새문안로 55",
  "address2": "서울역사박물관 앞",
  "latitude": 37.56999969,
  "longitude": 126.9710999,
  "type": "QR"
 },
 {
  "id": 308,
  "address1": "서울특별시 종로구 새문안로 82",
  "address2": "광화문 S타워 앞",
  "latitude": 37.56996918,
  "longitude": 126.973938,
  "type": "QR"
 },
 {
  "id": 309,
  "address1": "서울특별시 종로구 세종대로 지하172",
  "address2": "광화문역 6번출구 옆",
  "latitude": 37.56996155,
  "longitude": 126.9761581,
  "type": "QR"
 },
 {
  "id": 310,
  "address1": "서울특별시 중구 세종대로 137",
  "address2": "청계광장 옆",
  "latitude": 37.56887817,
  "longitude": 126.9774704,
  "type": "QR"
 },
 {
  "id": 314,
  "address1": "서울특별시 종로구 삼청로 30",
  "address2": "국립현대미술관",
  "latitude": 37.5797081,
  "longitude": 126.9808579,
  "type": "QR"
 },
 {
  "id": 316,
  "address1": "서울특별시 종로구 종로 47",
  "address2": "종각역 1번출구 앞",
  "latitude": 37.57039642,
  "longitude": 126.9817886,
  "type": "QR"
 },
 {
  "id": 318,
  "address1": "서울특별시 중구 청계천로 30",
  "address2": "광교사거리 남측",
  "latitude": 37.56863403,
  "longitude": 126.9823151,
  "type": "LCD"
 },
 {
  "id": 320,
  "address1": "서울특별시 중구 을지로 55",
  "address2": "을지로입구역 4번출구 앞",
  "latitude": 37.56622314,
  "longitude": 126.9835892,
  "type": "QR"
 },
 {
  "id": 321,
  "address1": "서울특별시 중구 을지로 66",
  "address2": "KEB 하나금융그룹 명동사옥 옆",
  "latitude": 37.56546402,
  "longitude": 126.9841385,
  "type": "LCD"
 },
 {
  "id": 322,
  "address1": "서울특별시 중구 명동길 74",
  "address2": "명동성당 앞",
  "latitude": 37.56447601,
  "longitude": 126.986969,
  "type": "LCD"
 },
 {
  "id": 324,
  "address1": "서울특별시 중구 퇴계로 77",
  "address2": "신세계백화점 본점 앞",
  "latitude": 37.56143188,
  "longitude": 126.9806976,
  "type": "QR"
 },
 {
  "id": 326,
  "address1": "서울특별시 종로구 율곡로 지하62",
  "address2": "안국역 5번출구 앞",
  "latitude": 37.57624054,
  "longitude": 126.9861603,
  "type": "LCD"
 },
 {
  "id": 327,
  "address1": "서울특별시 종로구 삼일대로 428",
  "address2": "낙원상가 옆",
  "latitude": 37.57335663,
  "longitude": 126.9874649,
  "type": "QR"
 },
 {
  "id": 328,
  "address1": "서울특별시 종로구 종로 99",
  "address2": "탑골공원 앞",
  "latitude": 37.57039642,
  "longitude": 126.9881897,
  "type": "QR"
 },
 {
  "id": 329,
  "address1": "서울특별시 종로구 청계천로 93",
  "address2": "청계2가 사거리 옆",
  "latitude": 37.56848526,
  "longitude": 126.9878845,
  "type": "LCD"
 },
 {
  "id": 331,
  "address1": "서울특별시 중구 을지로 79",
  "address2": "을지로2가 사거리 북측",
  "latitude": 37.56638336,
  "longitude": 126.9872055,
  "type": "QR"
 },
 {
  "id": 332,
  "address1": "중구 을지로2가 149-10 ",
  "address2": "을지로2가 사거리 남측",
  "latitude": 37.56599045,
  "longitude": 126.987793,
  "type": "QR"
 },
 {
  "id": 334,
  "address1": "서울특별시 종로구 종로 지하129",
  "address2": "종로3가역 2번출구 뒤",
  "latitude": 37.5705986,
  "longitude": 126.9917908,
  "type": "QR"
 },
 {
  "id": 335,
  "address1": "서울특별시 종로구 종로 지하129",
  "address2": "종로3가역 15번출구 앞",
  "latitude": 37.57019806,
  "longitude": 126.9912567,
  "type": "QR"
 },
 {
  "id": 336,
  "address1": "서울특별시 중구 충무로 15",
  "address2": "티마크 호텔 앞",
  "latitude": 37.5614624,
  "longitude": 126.9931107,
  "type": "QR"
 },
 {
  "id": 337,
  "address1": "서울특별시 종로구 창경궁로 185",
  "address2": "창경궁 입구",
  "latitude": 37.57897949,
  "longitude": 126.9964752,
  "type": "LCD"
 },
 {
  "id": 338,
  "address1": "서울특별시 종로구 창경궁로 109",
  "address2": "세운스퀘어 앞",
  "latitude": 37.57095718,
  "longitude": 126.9971237,
  "type": "LCD"
 },
 {
  "id": 339,
  "address1": "서울특별시 종로구 종로 185",
  "address2": "종로4가 사거리",
  "latitude": 37.57106781,
  "longitude": 126.9981918,
  "type": "LCD"
 },
 {
  "id": 340,
  "address1": "서울특별시 종로구 창경궁로 271-1",
  "address2": "혜화동 로터리",
  "latitude": 37.58562851,
  "longitude": 127.000679,
  "type": "QR"
 },
 {
  "id": 341,
  "address1": "서울특별시 종로구 대학로 지하120",
  "address2": "혜화역 3번출구 뒤",
  "latitude": 37.58156967,
  "longitude": 127.0017853,
  "type": "QR"
 },
 {
  "id": 342,
  "address1": "서울특별시 종로구 대학로 105",
  "address2": "대학로 마로니에공원",
  "latitude": 37.57978439,
  "longitude": 127.002533,
  "type": "QR"
 },
 {
  "id": 343,
  "address1": "서울특별시 종로구 율곡로 238",
  "address2": "예일빌딩(율곡로) 앞",
  "latitude": 37.57543182,
  "longitude": 127.004982,
  "type": "QR"
 },
 {
  "id": 344,
  "address1": "서울특별시 종로구 율곡로 259",
  "address2": "성균관대 E하우스 앞",
  "latitude": 37.57403564,
  "longitude": 127.0067215,
  "type": "LCD"
 },
 {
  "id": 345,
  "address1": "서울특별시 종로구 김상옥로 29",
  "address2": "서울보증보험본사 앞",
  "latitude": 37.57330704,
  "longitude": 127.0007095,
  "type": "LCD"
 },
 {
  "id": 346,
  "address1": "서울특별시 중구 마장로 3",
  "address2": "맥스타일 앞",
  "latitude": 37.56918335,
  "longitude": 127.0098801,
  "type": "QR"
 },
 {
  "id": 347,
  "address1": "서울특별시 중구 장충단로 지하230",
  "address2": "동대문역사문화공원역 9번출구 앞",
  "latitude": 37.56533051,
  "longitude": 127.007843,
  "type": "LCD"
 },
 {
  "id": 348,
  "address1": "서울특별시 종로구 교북동 10-1",
  "address2": "독립문역 사거리",
  "latitude": 37.57202911,
  "longitude": 126.9607849,
  "type": "LCD"
 },
 {
  "id": 349,
  "address1": "서울특별시 종로구 사직로9길 5",
  "address2": "사직동주민센터",
  "latitude": 37.57633209,
  "longitude": 126.9685898,
  "type": "LCD"
 },
 {
  "id": 351,
  "address1": "서울특별시 종로구 청운동 108-22",
  "address2": "청운초교 앞 삼거리",
  "latitude": 37.58507919,
  "longitude": 126.9706192,
  "type": "LCD"
 },
 {
  "id": 352,
  "address1": "서울특별시 종로구 창덕궁길 191",
  "address2": "중앙고입구 삼거리",
  "latitude": 37.58341599,
  "longitude": 126.9852371,
  "type": "LCD"
 },
 {
  "id": 353,
  "address1": "서울특별시 종로구 재동 19",
  "address2": "재동초교 앞 삼거리",
  "latitude": 37.57938766,
  "longitude": 126.9849472,
  "type": "LCD"
 },
 {
  "id": 354,
  "address1": "서울특별시 종로구 창덕궁1길 3",
  "address2": "포르투갈 대사관 앞",
  "latitude": 37.57915497,
  "longitude": 126.9889603,
  "type": "LCD"
 },
 {
  "id": 355,
  "address1": "서울특별시 종로구 연건동 178-3",
  "address2": "서울사대부속초교 앞",
  "latitude": 37.57650757,
  "longitude": 127.0024567,
  "type": "LCD"
 },
 {
  "id": 356,
  "address1": "서울특별시 종로구 대학로 65",
  "address2": "KT혜화지사 앞",
  "latitude": 37.57714462,
  "longitude": 127.0020599,
  "type": "QR"
 },
 {
  "id": 358,
  "address1": "서울특별시 종로구 창경궁로 234",
  "address2": "성대입구 사거리",
  "latitude": 37.58250046,
  "longitude": 126.9985352,
  "type": "LCD"
 },
 {
  "id": 359,
  "address1": "서울특별시 종로구 율곡로 169",
  "address2": "원남동사거리",
  "latitude": 37.57606125,
  "longitude": 126.9976807,
  "type": "LCD"
 },
 {
  "id": 361,
  "address1": "서울특별시 종로구 숭인동 81-39",
  "address2": "동묘앞역 1번출구 뒤",
  "latitude": 37.57324219,
  "longitude": 127.0159073,
  "type": "LCD"
 },
 {
  "id": 362,
  "address1": "서울특별시 종로구 청계천로 407",
  "address2": "청계8가 사거리",
  "latitude": 37.57222366,
  "longitude": 127.0227051,
  "type": "LCD"
 },
 {
  "id": 363,
  "address1": "서울특별시 종로구 숭인동 1311",
  "address2": "신설동역 11번출구 뒤",
  "latitude": 37.57559204,
  "longitude": 127.02285,
  "type": "LCD"
 },
 {
  "id": 364,
  "address1": "서울특별시 종로구 지봉로 87",
  "address2": "창신역 1번출구 앞",
  "latitude": 37.57933426,
  "longitude": 127.0150833,
  "type": "LCD"
 },
 {
  "id": 367,
  "address1": "서울특별시 종로구 무악동 41-7",
  "address2": "독립문역 3-1번출구",
  "latitude": 37.57384872,
  "longitude": 126.9586945,
  "type": "QR"
 },
 {
  "id": 368,
  "address1": "서울특별시 종로구 서린동 93-2",
  "address2": "SK 서린빌딩 앞",
  "latitude": 37.5692482,
  "longitude": 126.9805374,
  "type": "LCD"
 },
 {
  "id": 369,
  "address1": "서울특별시 종로구 세종로 76-5",
  "address2": "광화문 시민열린마당",
  "latitude": 37.57549286,
  "longitude": 126.9785004,
  "type": "LCD"
 },
 {
  "id": 370,
  "address1": "서울특별시 중구 서소문로 지하127",
  "address2": "시청역(2호선) 9번출구 뒤",
  "latitude": 37.56322861,
  "longitude": 126.9748383,
  "type": "QR"
 },
 {
  "id": 371,
  "address1": "서울특별시 중구 동호로 지하256",
  "address2": "동대입구역 6번출구 뒤",
  "latitude": 37.55887222,
  "longitude": 127.0055389,
  "type": "LCD"
 },
 {
  "id": 372,
  "address1": "서울특별시 중구 다산로 지하122",
  "address2": "약수역 3번출구 뒤",
  "latitude": 37.55429459,
  "longitude": 127.0112,
  "type": "LCD"
 },
 {
  "id": 374,
  "address1": "서울특별시 중구 청구로 지하77",
  "address2": "청구역 2번출구 앞",
  "latitude": 37.5604744,
  "longitude": 127.0140762,
  "type": "LCD"
 },
 {
  "id": 379,
  "address1": "서울특별시 중구 세종대로 지하2",
  "address2": "서울역9번출구",
  "latitude": 37.55599976,
  "longitude": 126.9733582,
  "type": "LCD"
 },
 {
  "id": 380,
  "address1": "서울특별시 중구 동호로 330",
  "address2": "CJ제일제당 앞",
  "latitude": 37.56386566,
  "longitude": 127.0027466,
  "type": "LCD"
 },
 {
  "id": 381,
  "address1": "서울특별시 중구 장충동2가 200-99",
  "address2": "장충체육관",
  "latitude": 37.55853271,
  "longitude": 127.0069885,
  "type": "LCD"
 },
 {
  "id": 382,
  "address1": "서울특별시 중구 신당동 357-1",
  "address2": "약수역 10번출구 앞",
  "latitude": 37.55519867,
  "longitude": 127.0100479,
  "type": "LCD"
 },
 {
  "id": 383,
  "address1": "서울특별시 중구 신당동 99",
  "address2": "신당역 12번 출구 뒤",
  "latitude": 37.565849299999996,
  "longitude": 127.0164032,
  "type": "LCD"
 },
 {
  "id": 384,
  "address1": "서울특별시 중구 청파로 456",
  "address2": "종로학원본원",
  "latitude": 37.55978012,
  "longitude": 126.9685059,
  "type": "LCD"
 },
 {
  "id": 385,
  "address1": "서울특별시 종로구 서린동 26-1",
  "address2": "종각역 5번출구",
  "latitude": 37.56983566,
  "longitude": 126.9826584,
  "type": "LCD"
 },
 {
  "id": 387,
  "address1": "서울특별시 중구 을지로 227",
  "address2": "훈련원공원주차장 앞",
  "latitude": 37.56699371,
  "longitude": 127.0034638,
  "type": "LCD"
 },
 {
  "id": 388,
  "address1": "서울특별시 종로구 혜화동 56",
  "address2": "동성중학교 앞",
  "latitude": 37.58573532,
  "longitude": 127.0016098,
  "type": "LCD"
 },
 {
  "id": 389,
  "address1": "서울특별시 중구 을지로 지하 178",
  "address2": "을지로4가역 1번출구",
  "latitude": 37.5667305,
  "longitude": 126.9966049,
  "type": "LCD"
 },
 {
  "id": 390,
  "address1": "서울특별시 중구 퇴계로 212",
  "address2": "충무로역 1번출구",
  "latitude": 37.56138992,
  "longitude": 126.9953537,
  "type": "LCD"
 },
 {
  "id": 391,
  "address1": "서울특별시 중구 세종대로19길 17",
  "address2": "시립미술관",
  "latitude": 37.56505203,
  "longitude": 126.9734039,
  "type": "QR"
 },
 {
  "id": 393,
  "address1": "서울특별시 종로구 율곡로 지하 308",
  "address2": "동대문역 8번 출구",
  "latitude": 37.57014084,
  "longitude": 127.0093765,
  "type": "LCD"
 },
 {
  "id": 394,
  "address1": "서울특별시 종로구 경교장길 35",
  "address2": "경희궁 자이 3단지",
  "latitude": 37.56748962,
  "longitude": 126.9659195,
  "type": "QR"
 },
 {
  "id": 395,
  "address1": "서울특별시 종로구 송월길 99",
  "address2": "경희궁 자이 2단지",
  "latitude": 37.56885529,
  "longitude": 126.9645615,
  "type": "LCD"
 },
 {
  "id": 397,
  "address1": "서울특별시 종로구 종로 지하 200",
  "address2": "종묘공영주차장 건너편",
  "latitude": 37.57048035,
  "longitude": 126.9966354,
  "type": "LCD"
 },
 {
  "id": 398,
  "address1": "중구 을지로3가 282-8 ",
  "address2": "을지로3가역 3번출구",
  "latitude": 37.56655884,
  "longitude": 126.9924393,
  "type": "LCD"
 },
 {
  "id": 399,
  "address1": "중구 만리동2가 176-1",
  "address2": "서울역 센트럴 자이아파트",
  "latitude": 37.55410767,
  "longitude": 126.9654083,
  "type": "LCD"
 },
 {
  "id": 400,
  "address1": "서울특별시 마포구 구룡길 19",
  "address2": "상암한화오벨리스크 1차 앞",
  "latitude": 37.58752441,
  "longitude": 126.8830032,
  "type": "QR"
 },
 {
  "id": 401,
  "address1": "서울특별시 마포구 월드컵북로 502-36",
  "address2": "상암월드컵파크 10단지 앞",
  "latitude": 37.58618927,
  "longitude": 126.8816147,
  "type": "QR"
 },
 {
  "id": 402,
  "address1": "서울특별시 마포구 월드컵북로 501",
  "address2": "상암월드컵파크 9단지 앞",
  "latitude": 37.58285522,
  "longitude": 126.8798218,
  "type": "QR"
 },
 {
  "id": 403,
  "address1": "서울특별시 마포구 가양대로 189",
  "address2": "부엉이공원 앞",
  "latitude": 37.58559036,
  "longitude": 126.8847275,
  "type": "LCD"
 },
 {
  "id": 405,
  "address1": "서울특별시 마포구 월드컵북로60길 13",
  "address2": "DMC빌 앞",
  "latitude": 37.58265686,
  "longitude": 126.885788,
  "type": "QR"
 },
 {
  "id": 406,
  "address1": "서울특별시 마포구 상암산로1길 92",
  "address2": "상암월드컵파크 7단지 앞",
  "latitude": 37.58131409,
  "longitude": 126.8805847,
  "type": "LCD"
 },
 {
  "id": 407,
  "address1": "서울특별시 마포구 상암산로1길 71",
  "address2": "마포구 육아종합지원센터",
  "latitude": 37.58063126,
  "longitude": 126.8836746,
  "type": "LCD"
 },
 {
  "id": 408,
  "address1": "서울특별시 마포구 월드컵북로 424",
  "address2": "LG CNS앞",
  "latitude": 37.58081055,
  "longitude": 126.8866501,
  "type": "LCD"
 },
 {
  "id": 409,
  "address1": "서울특별시 마포구 월드컵북로 396",
  "address2": "누리꿈스퀘어 옆",
  "latitude": 37.57939911,
  "longitude": 126.8891602,
  "type": "QR"
 },
 {
  "id": 410,
  "address1": "서울특별시 마포구 상암산로1길 26",
  "address2": "상암중학교 옆",
  "latitude": 37.57749557,
  "longitude": 126.8877716,
  "type": "QR"
 },
 {
  "id": 411,
  "address1": "서울특별시 마포구 월드컵북로 366",
  "address2": "DMC홍보관",
  "latitude": 37.5779953,
  "longitude": 126.8914719,
  "type": "QR"
 },
 {
  "id": 412,
  "address1": "서울특별시 마포구 매봉산로 37",
  "address2": "DMC산학협력연구센터 앞",
  "latitude": 37.57580185,
  "longitude": 126.8907394,
  "type": "QR"
 },
 {
  "id": 413,
  "address1": "서울특별시 마포구 매봉산로 8",
  "address2": "상암월드컵파크 3단지 후문",
  "latitude": 37.57147598,
  "longitude": 126.8896866,
  "type": "QR"
 },
 {
  "id": 414,
  "address1": "서울특별시 마포구 매봉산로2길 16",
  "address2": "상암동주민센터 옆",
  "latitude": 37.57822037,
  "longitude": 126.8944702,
  "type": "QR"
 },
 {
  "id": 415,
  "address1": "서울특별시 마포구 성암로 지하184",
  "address2": "DMC역 9번출구 앞",
  "latitude": 37.57746887,
  "longitude": 126.8973618,
  "type": "QR"
 },
 {
  "id": 416,
  "address1": "서울특별시 마포구 월드컵북로 502-7",
  "address2": "상암월드컵파크 1단지 교차로",
  "latitude": 37.57566452,
  "longitude": 126.8944473,
  "type": "QR"
 },
 {
  "id": 417,
  "address1": "서울특별시 은평구 수색로 지하175",
  "address2": "DMC역 2번출구 옆",
  "latitude": 37.57506943,
  "longitude": 126.8999176,
  "type": "QR"
 },
 {
  "id": 418,
  "address1": "서울특별시 마포구 월드컵로 지하240",
  "address2": "월드컵경기장역 3번출구 옆",
  "latitude": 37.57072067,
  "longitude": 126.8989792,
  "type": "LCD"
 },
 {
  "id": 419,
  "address1": "서울특별시 마포구 월드컵로 240",
  "address2": "홈플러스 앞",
  "latitude": 37.56842041,
  "longitude": 126.8994293,
  "type": "LCD"
 },
 {
  "id": 420,
  "address1": "서울특별시 마포구 월드컵북로47길 10",
  "address2": "서울시 공공자전거 상암센터",
  "latitude": 37.56624603,
  "longitude": 126.8961792,
  "type": "QR"
 },
 {
  "id": 421,
  "address1": "서울특별시 마포구 월드컵로 212",
  "address2": "마포구청 앞",
  "latitude": 37.56574631,
  "longitude": 126.9018631,
  "type": "QR"
 },
 {
  "id": 422,
  "address1": "서울특별시 마포구 증산로 87",
  "address2": "문화비축기지",
  "latitude": 37.56897736,
  "longitude": 126.8944016,
  "type": "QR"
 },
 {
  "id": 424,
  "address1": "서울특별시 상암동 1715-29",
  "address2": "롯데하이마트 (상암월드컵점)",
  "latitude": 37.57361984,
  "longitude": 126.8980484,
  "type": "LCD"
 },
 {
  "id": 425,
  "address1": "서울특별시 마포구 성암로330",
  "address2": "DMC첨단산업센터",
  "latitude": 37.58450317,
  "longitude": 126.8855972,
  "type": "LCD"
 },
 {
  "id": 426,
  "address1": "서울특별시 마포구 마포대로 163",
  "address2": "서울신용보증재단",
  "latitude": 37.54906082,
  "longitude": 126.9541779,
  "type": "LCD"
 },
 {
  "id": 427,
  "address1": "서울특별시 마포구 월드컵북로 260",
  "address2": "성산시영아파트",
  "latitude": 37.56958389,
  "longitude": 126.9038162,
  "type": "LCD"
 },
 {
  "id": 428,
  "address1": "중구 초동 22-2 ",
  "address2": "명보사거리",
  "latitude": 37.56439972,
  "longitude": 126.9914322,
  "type": "LCD"
 },
 {
  "id": 429,
  "address1": "중구 신당동 432-730",
  "address2": "송도병원",
  "latitude": 37.549888609999996,
  "longitude": 127.0073471,
  "type": "LCD"
 },
 {
  "id": 430,
  "address1": "중구 장충동1가 26-1",
  "address2": "KEB하나은행 장충동지점",
  "latitude": 37.56217194,
  "longitude": 127.0062637,
  "type": "LCD"
 },
 {
  "id": 431,
  "address1": "중구 황학동 2472-1 ",
  "address2": "청계천 영도교",
  "latitude": 37.5710144,
  "longitude": 127.0197449,
  "type": "QR"
 },
 {
  "id": 432,
  "address1": "마포구 성산로 128",
  "address2": "마포중앙도서관",
  "latitude": 37.56333923,
  "longitude": 126.9082031,
  "type": "LCD"
 },
 {
  "id": 433,
  "address1": "중구 을지로1가 118",
  "address2": "을지로입구역 2번출구",
  "latitude": 37.56634521,
  "longitude": 126.9822922,
  "type": "LCD"
 },
 {
  "id": 434,
  "address1": "중구 신당동 85-730",
  "address2": "신당 래미안 버스정류장",
  "latitude": 37.56148911,
  "longitude": 127.0239334,
  "type": "LCD"
 },
 {
  "id": 435,
  "address1": "중구 남대문로5가 520",
  "address2": "SK 남산빌딩",
  "latitude": 37.55686188,
  "longitude": 126.9756165,
  "type": "LCD"
 },
 {
  "id": 436,
  "address1": "마포구 대흥동 2-1",
  "address2": "이대역 5번출구",
  "latitude": 37.55659103,
  "longitude": 126.9461899,
  "type": "LCD"
 },
 {
  "id": 437,
  "address1": "마포구 대흥동 105-4",
  "address2": "대흥역 1번출구",
  "latitude": 37.54846954,
  "longitude": 126.9409256,
  "type": "LCD"
 },
 {
  "id": 438,
  "address1": "마포구 성산동 199-46",
  "address2": "성산2-1 공영주차장",
  "latitude": 37.56472015,
  "longitude": 126.9067688,
  "type": "LCD"
 },
 {
  "id": 439,
  "address1": "마포구 마포동 364-4",
  "address2": "마포어린이공원",
  "latitude": 37.53552246,
  "longitude": 126.9439087,
  "type": "QR"
 },
 {
  "id": 440,
  "address1": "마포구 하늘공원로 108-2",
  "address2": "하늘공원 입구",
  "latitude": 37.57012177,
  "longitude": 126.8813477,
  "type": "LCD"
 },
 {
  "id": 441,
  "address1": "중구 순화동 212-9",
  "address2": "염천교사거리",
  "latitude": 37.55989075,
  "longitude": 126.9714966,
  "type": "QR"
 },
 {
  "id": 442,
  "address1": "봉래동 2가 122-11",
  "address2": "서울역 서부",
  "latitude": 37.55641556,
  "longitude": 126.9691925,
  "type": "QR"
 },
 {
  "id": 443,
  "address1": "봉래동 2가 122-11",
  "address2": "호암아트홀",
  "latitude": 37.5621109,
  "longitude": 126.9707184,
  "type": "QR"
 },
 {
  "id": 445,
  "address1": "세종대로 39",
  "address2": "대한상공회의소",
  "latitude": 37.56015396,
  "longitude": 126.9741058,
  "type": "QR"
 },
 {
  "id": 446,
  "address1": "서울특별시 종로구 홍지문길 1",
  "address2": "상명대입구",
  "latitude": 37.60012817,
  "longitude": 126.9578323,
  "type": "LCD"
 },
 {
  "id": 447,
  "address1": "서울특별시 종로구 진흥로 499",
  "address2": "신영동삼거리",
  "latitude": 37.60399246,
  "longitude": 126.9619446,
  "type": "QR"
 },
 {
  "id": 449,
  "address1": "서울특별시 종로구 평창문화로 119",
  "address2": "일성아파트",
  "latitude": 37.60871887,
  "longitude": 126.9728622,
  "type": "LCD"
 },
 {
  "id": 450,
  "address1": "서울특별시 종로구 효자로13길 45",
  "address2": "효자동 삼거리",
  "latitude": 37.58360291,
  "longitude": 126.9725494,
  "type": "QR"
 },
 {
  "id": 451,
  "address1": "서울특별시 종로구 청와대로 73",
  "address2": "청와대앞길",
  "latitude": 37.58351517,
  "longitude": 126.9796677,
  "type": "LCD"
 },
 {
  "id": 452,
  "address1": " 종로구 종로5가 11-2",
  "address2": "동대문 종합시장 버스정류장",
  "latitude": 37.57123947,
  "longitude": 127.0044098,
  "type": "QR"
 },
 {
  "id": 453,
  "address1": "종로5가 82-1 ",
  "address2": "종로오가 지하쇼핑센터 14번출구",
  "latitude": 37.57114029,
  "longitude": 127.0006714,
  "type": "LCD"
 },
 {
  "id": 454,
  "address1": " 종로구 종로 79-1",
  "address2": "종로2가 버스정류장 (종각방향)",
  "latitude": 37.57035828,
  "longitude": 126.9863815,
  "type": "LCD"
 },
 {
  "id": 455,
  "address1": "종로구 종로5가 269-3",
  "address2": "종로6가역 버스정류장(동대문 방향)",
  "latitude": 37.570961,
  "longitude": 127.0060577,
  "type": "LCD"
 },
 {
  "id": 456,
  "address1": " 종로구 숭인동 183-2",
  "address2": "숭인2동 주민센터 입구",
  "latitude": 37.57447052,
  "longitude": 127.0198288,
  "type": "LCD"
 },
 {
  "id": 457,
  "address1": "종로구 종로6가 94-1",
  "address2": "종로꽃시장 입구 옆",
  "latitude": 37.57131958,
  "longitude": 127.0072098,
  "type": "LCD"
 },
 {
  "id": 458,
  "address1": "종로구 세종로 1-68 ",
  "address2": "광화문역 5번출구",
  "latitude": 37.56989288,
  "longitude": 126.9775696,
  "type": "LCD"
 },
 {
  "id": 461,
  "address1": "종로구 내자동 186-3 ",
  "address2": "서울지방경찰청",
  "latitude": 37.57436371,
  "longitude": 126.9723663,
  "type": "LCD"
 },
 {
  "id": 462,
  "address1": "종로구 평창문화로 6-4",
  "address2": "신영동삼거리(북악터널방향)",
  "latitude": 37.60351181,
  "longitude": 126.9620667,
  "type": "LCD"
 },
 {
  "id": 464,
  "address1": "종로구 팔판길 46",
  "address2": "삼청동 골목",
  "latitude": 37.58419037,
  "longitude": 126.9816971,
  "type": "QR"
 },
 {
  "id": 465,
  "address1": "서울특별시 종로구 삼청동 25-32",
  "address2": "삼청공원 앞",
  "latitude": 37.58760452,
  "longitude": 126.9835968,
  "type": "LCD"
 },
 {
  "id": 466,
  "address1": "을지로 30",
  "address2": "롯데호텔",
  "latitude": 37.56584167,
  "longitude": 126.9798126,
  "type": "QR"
 },
 {
  "id": 467,
  "address1": "남대문로 39",
  "address2": "한국은행",
  "latitude": 37.5622139,
  "longitude": 126.9808655,
  "type": "QR"
 },
 {
  "id": 468,
  "address1": "소공로 106",
  "address2": "웨스틴 조선호텔",
  "latitude": 37.56415939,
  "longitude": 126.9794846,
  "type": "QR"
 },
 {
  "id": 469,
  "address1": "퇴계로 72",
  "address2": "회현역 1번출구",
  "latitude": 37.5592308,
  "longitude": 126.9801407,
  "type": "QR"
 },
 {
  "id": 470,
  "address1": "회현동 1가 23-1",
  "address2": "회현역 7번출구",
  "latitude": 37.55974579,
  "longitude": 126.9800034,
  "type": "QR"
 },
 {
  "id": 471,
  "address1": "퇴계로 100",
  "address2": "회현사거리 남측",
  "latitude": 37.56035995,
  "longitude": 126.9826508,
  "type": "QR"
 },
 {
  "id": 472,
  "address1": "청계천로 100",
  "address2": "삼일교(시그니쳐 타워)",
  "latitude": 37.56787109,
  "longitude": 126.9884033,
  "type": "QR"
 },
 {
  "id": 473,
  "address1": "을지로 170",
  "address2": "을지로4가역 9번출구",
  "latitude": 37.56605148,
  "longitude": 126.9979858,
  "type": "QR"
 },
 {
  "id": 474,
  "address1": "을지로 281",
  "address2": "동대문역사문화공원역 1번출구 뒤편",
  "latitude": 37.56629944,
  "longitude": 127.0084915,
  "type": "QR"
 },
 {
  "id": 475,
  "address1": "마장로 22",
  "address2": "ddp패션몰",
  "latitude": 37.56764984,
  "longitude": 127.0118103,
  "type": "QR"
 },
 {
  "id": 476,
  "address1": "퇴계로 344",
  "address2": "광희문",
  "latitude": 37.56443024,
  "longitude": 127.0099564,
  "type": "QR"
 },
 {
  "id": 477,
  "address1": "장충동2가 191-21",
  "address2": "앰배서더 호텔 주변",
  "latitude": 37.55928802,
  "longitude": 127.0026856,
  "type": "QR"
 },
 {
  "id": 479,
  "address1": "장충동2가 199-4",
  "address2": "동대입구역 3번 출구",
  "latitude": 37.55937576,
  "longitude": 127.0060272,
  "type": "QR"
 },
 {
  "id": 480,
  "address1": "동호로 177",
  "address2": "약수역 6번 출구",
  "latitude": 37.55432129,
  "longitude": 127.010704,
  "type": "QR"
 },
 {
  "id": 481,
  "address1": "청계천로 100",
  "address2": "신당역 10번 출구",
  "latitude": 37.56703186,
  "longitude": 127.0157929,
  "type": "QR"
 },
 {
  "id": 483,
  "address1": "신당동 산 24-110",
  "address2": "남산타운아파트 버스정류장",
  "latitude": 37.54758453,
  "longitude": 127.0064392,
  "type": "QR"
 },
 {
  "id": 484,
  "address1": "남창동 205-166",
  "address2": "도동삼거리",
  "latitude": 37.55614853,
  "longitude": 126.9774246,
  "type": "QR"
 },
 {
  "id": 485,
  "address1": "중구 남대문로5가",
  "address2": "서울역4번출구",
  "latitude": 37.55677032,
  "longitude": 126.9731979,
  "type": "QR"
 },
 {
  "id": 486,
  "address1": "서울특별시 종로구 평창동 187-2",
  "address2": "평창동주민센터 앞",
  "latitude": 37.60627365,
  "longitude": 126.9683228,
  "type": "LCD"
 },
 {
  "id": 487,
  "address1": "마포구 용강동 494-6 ",
  "address2": "신석초교앞 교차로 교통섬",
  "latitude": 37.54364014,
  "longitude": 126.9383087,
  "type": "QR"
 },
 {
  "id": 488,
  "address1": "마포구 상암동 632",
  "address2": "푸르메병원",
  "latitude": 37.58456802,
  "longitude": 126.8802109,
  "type": "QR"
 },
 {
  "id": 489,
  "address1": "마포구 상암동 1583",
  "address2": "구룡근린공원",
  "latitude": 37.58320236,
  "longitude": 126.8827667,
  "type": "QR"
 },
 {
  "id": 490,
  "address1": "마포구 상암동 1594",
  "address2": "가온문화공원",
  "latitude": 37.58207703,
  "longitude": 126.8876648,
  "type": "QR"
 },
 {
  "id": 491,
  "address1": "마포구 상암동 1761",
  "address2": "월드컵파크 4단지",
  "latitude": 37.57597733,
  "longitude": 126.8880692,
  "type": "QR"
 },
 {
  "id": 492,
  "address1": " 마포구 중동 77-11",
  "address2": "성산시영아파트 후문",
  "latitude": 37.57313538,
  "longitude": 126.9018478,
  "type": "QR"
 },
 {
  "id": 493,
  "address1": "마포구 서교동 193-4",
  "address2": "홍대입구역 6번출구",
  "latitude": 37.55657578,
  "longitude": 126.9288559,
  "type": "QR"
 },
 {
  "id": 494,
  "address1": "마포구 신수동 458",
  "address2": "신수동주민센터",
  "latitude": 37.54724503,
  "longitude": 126.9350281,
  "type": "QR"
 },
 {
  "id": 495,
  "address1": "마포구 도화동 536",
  "address2": "염리초등학교 앞",
  "latitude": 37.54243088,
  "longitude": 126.9469986,
  "type": "QR"
 },
 {
  "id": 497,
  "address1": "마포구 합정동 473-2",
  "address2": "합정동주민센터 앞",
  "latitude": 37.551754,
  "longitude": 126.9123001,
  "type": "QR"
 },
 {
  "id": 498,
  "address1": "마포구 연남동 250-11",
  "address2": "연남동주민센터 앞",
  "latitude": 37.56465149,
  "longitude": 126.9221268,
  "type": "QR"
 },
 {
  "id": 500,
  "address1": "서울특별시 광진구 능동로 지하210",
  "address2": "어린이대공원역 3번출구 앞",
  "latitude": 37.54706955,
  "longitude": 127.0742722,
  "type": "LCD"
 },
 {
  "id": 501,
  "address1": "서울특별시 광진구 능동로 76",
  "address2": "광진구의회 앞",
  "latitude": 37.53730774,
  "longitude": 127.0703507,
  "type": "QR"
 },
 {
  "id": 502,
  "address1": "서울특별시 광진구 능동로 10",
  "address2": "뚝섬유원지역 1번출구 앞",
  "latitude": 37.53186035,
  "longitude": 127.0671921,
  "type": "QR"
 },
 {
  "id": 505,
  "address1": "서울특별시 광진구 아차산로 355",
  "address2": "자양사거리 광진아크로텔 앞",
  "latitude": 37.53701019,
  "longitude": 127.0822449,
  "type": "QR"
 },
 {
  "id": 506,
  "address1": "서울특별시 성동구 광나루로 249",
  "address2": "금호 어울림 아파트 앞",
  "latitude": 37.54906082,
  "longitude": 127.0577927,
  "type": "LCD"
 },
 {
  "id": 507,
  "address1": "서울특별시 성동구 성수이로 147",
  "address2": "성수아이에스비즈타워 앞",
  "latitude": 37.54820251,
  "longitude": 127.0571137,
  "type": "LCD"
 },
 {
  "id": 508,
  "address1": "서울특별시 성동구 성수이로 118",
  "address2": "성수아카데미타워 앞",
  "latitude": 37.54516602,
  "longitude": 127.0575104,
  "type": "LCD"
 },
 {
  "id": 509,
  "address1": "서울특별시 성동구 뚝섬로 379",
  "address2": "이마트 버스정류소 옆",
  "latitude": 37.53965378,
  "longitude": 127.0525894,
  "type": "QR"
 },
 {
  "id": 510,
  "address1": "서울특별시 성동구 왕십리로11길 9",
  "address2": "서울숲 남문 버스정류소 옆",
  "latitude": 37.54122162,
  "longitude": 127.0438004,
  "type": "QR"
 },
 {
  "id": 511,
  "address1": "서울특별시 성동구 왕십리로 지하77",
  "address2": "서울숲역 4번 출구 옆",
  "latitude": 37.54458237,
  "longitude": 127.0446091,
  "type": "LCD"
 },
 {
  "id": 512,
  "address1": "서울특별시 성동구 아차산로 18",
  "address2": "뚝섬역 1번 출구 옆",
  "latitude": 37.5485611,
  "longitude": 127.0450058,
  "type": "QR"
 },
 {
  "id": 513,
  "address1": "서울특별시 성동구 아차산로 18",
  "address2": "뚝섬역 5번 출구 정류소 옆",
  "latitude": 37.54630661,
  "longitude": 127.0498047,
  "type": "QR"
 },
 {
  "id": 514,
  "address1": "서울특별시 성동구 아차산로 171",
  "address2": "성수사거리 버스정류장 앞",
  "latitude": 37.54257965,
  "longitude": 127.0633087,
  "type": "QR"
 },
 {
  "id": 515,
  "address1": "서울특별시 광진구 자양로3길 7",
  "address2": "광양중학교 앞",
  "latitude": 37.53023529,
  "longitude": 127.0868301,
  "type": "LCD"
 },
 {
  "id": 516,
  "address1": "서울특별시 광진구 광나루로 355",
  "address2": "광진메디칼 앞",
  "latitude": 37.54840469,
  "longitude": 127.0693665,
  "type": "QR"
 },
 {
  "id": 518,
  "address1": "서울특별시 성동구 마장동 610",
  "address2": "청계천 박물관 앞",
  "latitude": 37.57152557,
  "longitude": 127.0353546,
  "type": "LCD"
 },
 {
  "id": 519,
  "address1": "서울특별시 성동구 홍익동 590",
  "address2": "양지사거리",
  "latitude": 37.56699371,
  "longitude": 127.0299149,
  "type": "LCD"
 },
 {
  "id": 520,
  "address1": "서울특별시 성동구 하왕십리동 960-3",
  "address2": "상왕십리역 4번 출구 앞",
  "latitude": 37.56385803,
  "longitude": 127.0303192,
  "type": "QR"
 },
 {
  "id": 521,
  "address1": "서울특별시 성동구 행당동 188-9",
  "address2": "왕십리역 11번 출구 앞",
  "latitude": 37.56144714,
  "longitude": 127.0349197,
  "type": "QR"
 },
 {
  "id": 522,
  "address1": "서울특별시 성동구 금호동3가 1575-3",
  "address2": "금호역 1번출구 앞",
  "latitude": 37.5486412,
  "longitude": 127.0164261,
  "type": "LCD"
 },
 {
  "id": 523,
  "address1": "서울특별시 성동구 옥수동 산5-148",
  "address2": "옥수동성당 옆",
  "latitude": 37.54366302,
  "longitude": 127.014061,
  "type": "LCD"
 },
 {
  "id": 524,
  "address1": "서울특별시 성동구 금호동2가 1220-1",
  "address2": "래미안금호하이리버 아파트 102동 옆",
  "latitude": 37.55220032,
  "longitude": 127.0250549,
  "type": "LCD"
 },
 {
  "id": 525,
  "address1": "서울특별시 성동구 행당동 20-2",
  "address2": "한양대병원사거리",
  "latitude": 37.55805206,
  "longitude": 127.0403519,
  "type": "LCD"
 },
 {
  "id": 526,
  "address1": "서울특별시 성동구 용답동 224-1",
  "address2": "용답토속공원 앞",
  "latitude": 37.56351089,
  "longitude": 127.0567246,
  "type": "LCD"
 },
 {
  "id": 529,
  "address1": "서울특별시 성동구 용답동 224-3",
  "address2": "장한평역 8번 출구 앞",
  "latitude": 37.56137085,
  "longitude": 127.0636597,
  "type": "LCD"
 },
 {
  "id": 530,
  "address1": "서울특별시 성동구 하왕십리동 286-24",
  "address2": "청계벽산아파트 앞",
  "latitude": 37.56874847,
  "longitude": 127.0304031,
  "type": "LCD"
 },
 {
  "id": 533,
  "address1": "서울특별시 성동구 금호동4가 1101",
  "address2": "금남시장 교차로",
  "latitude": 37.54814911,
  "longitude": 127.0210877,
  "type": "LCD"
 },
 {
  "id": 534,
  "address1": "서울특별시 성동구 금호동2가 1205-1",
  "address2": "금호사거리",
  "latitude": 37.54863358,
  "longitude": 127.0257263,
  "type": "LCD"
 },
 {
  "id": 535,
  "address1": "서울특별시 성동구 응봉동 134-26",
  "address2": "응봉삼거리",
  "latitude": 37.5539856,
  "longitude": 127.0335922,
  "type": "QR"
 },
 {
  "id": 536,
  "address1": "서울특별시 성동구 행당동 347-11",
  "address2": "행당역 2번출구 앞",
  "latitude": 37.55735016,
  "longitude": 127.029213,
  "type": "LCD"
 },
 {
  "id": 537,
  "address1": "서울특별시 성동구 행당동 10",
  "address2": "한양대후문역 부근",
  "latitude": 37.56035614,
  "longitude": 127.0413971,
  "type": "LCD"
 },
 {
  "id": 538,
  "address1": "서울특별시 성동구 용답동 102-1",
  "address2": "답십리역 8번출구 앞",
  "latitude": 37.56764984,
  "longitude": 127.0511551,
  "type": "LCD"
 },
 {
  "id": 539,
  "address1": "서울특별시 광진구 중곡동 263-1",
  "address2": "군자교교차로",
  "latitude": 37.55979538,
  "longitude": 127.0742035,
  "type": "QR"
 },
 {
  "id": 540,
  "address1": "서울특별시 광진구 군자동 499",
  "address2": "군자역 7번출구 베스트샵 앞",
  "latitude": 37.55603027,
  "longitude": 127.0786438,
  "type": "LCD"
 },
 {
  "id": 542,
  "address1": "서울특별시 광진구 구의동 546-6",
  "address2": "강변역 4번출구 뒤",
  "latitude": 37.53546524,
  "longitude": 127.0944824,
  "type": "QR"
 },
 {
  "id": 543,
  "address1": "서울특별시 광진구 구의동 546-3",
  "address2": "구의공원(테크노마트 앞)",
  "latitude": 37.53596878,
  "longitude": 127.0946732,
  "type": "QR"
 },
 {
  "id": 544,
  "address1": "서울특별시 광진구 광장동 561-15",
  "address2": "광남중학교",
  "latitude": 37.54072952,
  "longitude": 127.1029053,
  "type": "LCD"
 },
 {
  "id": 546,
  "address1": "서울특별시 광진구 자양동 722",
  "address2": "잠실대교북단 교차로",
  "latitude": 37.53247833,
  "longitude": 127.0850906,
  "type": "LCD"
 },
 {
  "id": 548,
  "address1": "서울특별시 광진구 자양동 738",
  "address2": "자양나들목",
  "latitude": 37.5297699,
  "longitude": 127.0748596,
  "type": "LCD"
 },
 {
  "id": 549,
  "address1": "서울특별시 광진구 구의동 96",
  "address2": "아차산역 3번출구",
  "latitude": 37.55122375,
  "longitude": 127.0897064,
  "type": "LCD"
 },
 {
  "id": 550,
  "address1": "서울특별시 성동구 마장동 610",
  "address2": "서울시설공단 앞",
  "latitude": 37.57164001,
  "longitude": 127.0356598,
  "type": "QR"
 },
 {
  "id": 551,
  "address1": "서울특별시 광진구 구의강변로 106",
  "address2": "구의삼성쉐르빌 앞",
  "latitude": 37.54006195,
  "longitude": 127.0944977,
  "type": "LCD"
 },
 {
  "id": 552,
  "address1": "서울특별시 광진구 구의강변로 64",
  "address2": "대림아크로리버 앞",
  "latitude": 37.53657913,
  "longitude": 127.0929718,
  "type": "LCD"
 },
 {
  "id": 553,
  "address1": "서울특별시 광진구 동일로 459",
  "address2": "중곡 성원APT 앞",
  "latitude": 37.57125473,
  "longitude": 127.0798035,
  "type": "LCD"
 },
 {
  "id": 555,
  "address1": "서울특별시 광진구 강변역로 17",
  "address2": "구의3동주민센터",
  "latitude": 37.53784943,
  "longitude": 127.0921707,
  "type": "LCD"
 },
 {
  "id": 556,
  "address1": "서울특별시 성동구 금호동4가 367-1",
  "address2": "달맞이공원",
  "latitude": 37.54205322,
  "longitude": 127.020401,
  "type": "LCD"
 },
 {
  "id": 557,
  "address1": "서울특별시 성동구 무학로10길 6",
  "address2": "도선동 주민센터 앞",
  "latitude": 37.56764221,
  "longitude": 127.0256958,
  "type": "LCD"
 },
 {
  "id": 558,
  "address1": "서울특별시 성동구 고산자로 260",
  "address2": "성동광진 교육지원청 앞",
  "latitude": 37.56460571,
  "longitude": 127.0365219,
  "type": "LCD"
 },
 {
  "id": 559,
  "address1": "서울특별시 성동구 왕십리광장로 10-1",
  "address2": "왕십리역 4번 출구 건너편",
  "latitude": 37.56109619,
  "longitude": 127.0367966,
  "type": "QR"
 },
 {
  "id": 560,
  "address1": "서울특별시 성동구 동일로 213",
  "address2": "비전교회 앞",
  "latitude": 37.55120468,
  "longitude": 127.0689316,
  "type": "LCD"
 },
 {
  "id": 561,
  "address1": "서울특별시 성동구 왕십리로 64",
  "address2": "서울숲역 2번출구 앞",
  "latitude": 37.54281616,
  "longitude": 127.0446701,
  "type": "LCD"
 },
 {
  "id": 562,
  "address1": "서울특별시 성동구 동일로 313",
  "address2": "군자지하보도 앞",
  "latitude": 37.55924606,
  "longitude": 127.07341,
  "type": "LCD"
 },
 {
  "id": 563,
  "address1": "서울특별시 성동구 광나루로 302",
  "address2": "성동세무서 건너편",
  "latitude": 37.5479126,
  "longitude": 127.0627518,
  "type": "LCD"
 },
 {
  "id": 564,
  "address1": "서울특별시 성동구 동호로 99",
  "address2": "금호역 3번출구",
  "latitude": 37.54792786,
  "longitude": 127.0155716,
  "type": "LCD"
 },
 {
  "id": 565,
  "address1": "서울특별시 성동구 한림말길 56",
  "address2": "옥수역 3번출구",
  "latitude": 37.54136658,
  "longitude": 127.0177612,
  "type": "QR"
 },
 {
  "id": 567,
  "address1": "서울특별시 성동구 아차산로 113",
  "address2": "성수역 2번출구 앞",
  "latitude": 37.54459,
  "longitude": 127.0570831,
  "type": "QR"
 },
 {
  "id": 568,
  "address1": "서울특별시 동대문구 청계천로 417",
  "address2": "청계8가사거리 부근",
  "latitude": 37.57110214,
  "longitude": 127.0235596,
  "type": "LCD"
 },
 {
  "id": 569,
  "address1": "서울특별시 성동구 독서당로 381",
  "address2": "응봉현대아파트 정류소",
  "latitude": 37.54958344,
  "longitude": 127.0302429,
  "type": "LCD"
 },
 {
  "id": 571,
  "address1": "서울특별시 광진구 군자로 74",
  "address2": "어린이대공원역6번출구",
  "latitude": 37.55039597,
  "longitude": 127.0758591,
  "type": "QR"
 },
 {
  "id": 572,
  "address1": "서울특별시 광진구 능동로 398",
  "address2": "국립정신 건강센터 앞",
  "latitude": 37.5653801,
  "longitude": 127.0865097,
  "type": "LCD"
 },
 {
  "id": 573,
  "address1": "서울특별시 광진구 능동로 216",
  "address2": "구의문주차장 앞",
  "latitude": 37.54523087,
  "longitude": 127.0847321,
  "type": "LCD"
 },
 {
  "id": 574,
  "address1": "서울특별시 광진구 능동로 216",
  "address2": "아차산역4번출구",
  "latitude": 37.55184937,
  "longitude": 127.0889816,
  "type": "LCD"
 },
 {
  "id": 575,
  "address1": "서울특별시 광진구 용마산로 120",
  "address2": "대원중고교 입구(대하빌딩)",
  "latitude": 37.56429291,
  "longitude": 127.086937,
  "type": "LCD"
 },
 {
  "id": 576,
  "address1": "서울특별시 광진구 아차산로 552",
  "address2": "광나루역 3번 출구",
  "latitude": 37.54483032,
  "longitude": 127.1042633,
  "type": "LCD"
 },
 {
  "id": 577,
  "address1": "서울특별시 광진구 구천면로 2",
  "address2": "광진청소년수련관",
  "latitude": 37.54654694,
  "longitude": 127.1061325,
  "type": "LCD"
 },
 {
  "id": 578,
  "address1": "서울특별시 성동구 광나루로 303-1",
  "address2": "성동세무서 부근",
  "latitude": 37.54829025,
  "longitude": 127.0624619,
  "type": "LCD"
 },
 {
  "id": 579,
  "address1": "서울특별시 성동구 마장로 292-1",
  "address2": "마장역 4번출구",
  "latitude": 37.56520462,
  "longitude": 127.0418472,
  "type": "LCD"
 },
 {
  "id": 582,
  "address1": "서울특별시 성동구 성수일로 27",
  "address2": "경일중학교 앞",
  "latitude": 37.54317856,
  "longitude": 127.0490799,
  "type": "LCD"
 },
 {
  "id": 583,
  "address1": "서울특별시 성동구 마장로39길 51",
  "address2": "청계천 생태교실 앞",
  "latitude": 37.56797028,
  "longitude": 127.0468903,
  "type": "LCD"
 },
 {
  "id": 584,
  "address1": "서울특별시 광진구 군자동 374-8",
  "address2": "광진광장 교통섬",
  "latitude": 37.54782867,
  "longitude": 127.0726318,
  "type": "LCD"
 },
 {
  "id": 585,
  "address1": "서울특별시 성동구 성수동2가 569-3",
  "address2": "성수2가1동 공영주차장 인근",
  "latitude": 37.53680801,
  "longitude": 127.0554886,
  "type": "LCD"
 },
 {
  "id": 586,
  "address1": "서울특별시 성동구 마장로42길 14",
  "address2": "마장동 주민센터",
  "latitude": 37.56594086,
  "longitude": 127.0453949,
  "type": "LCD"
 },
 {
  "id": 587,
  "address1": "서울특별시 성동구 성수동2가 276-5",
  "address2": "유니베라 앞",
  "latitude": 37.54541779,
  "longitude": 127.0526428,
  "type": "LCD"
 },
 {
  "id": 588,
  "address1": "서울특별시 광진구 능동로 10",
  "address2": "뚝섬 유원지역",
  "latitude": 37.53268814,
  "longitude": 127.0674973,
  "type": "QR"
 },
 {
  "id": 589,
  "address1": "서울특별시 성동구 아차산로 100",
  "address2": "성수역3번출구",
  "latitude": 37.54415894,
  "longitude": 127.0566559,
  "type": "LCD"
 },
 {
  "id": 590,
  "address1": "서울특별시 광진구 능동로 120",
  "address2": "건국대학교 (입학정보관)",
  "latitude": 37.53989029,
  "longitude": 127.0733643,
  "type": "LCD"
 },
 {
  "id": 591,
  "address1": "서울특별시 광진구 능동로 120",
  "address2": "건국대학교 (행정관)",
  "latitude": 37.54277802,
  "longitude": 127.0753708,
  "type": "LCD"
 },
 {
  "id": 592,
  "address1": "서울특별시 광진구 능동로 120",
  "address2": "건국대학교 학생회관",
  "latitude": 37.54191208,
  "longitude": 127.0776367,
  "type": "LCD"
 },
 {
  "id": 593,
  "address1": "서울특별시 광진구 자양강변길 301",
  "address2": "자양중앙나들목",
  "latitude": 37.52858734,
  "longitude": 127.0778732,
  "type": "QR"
 },
 {
  "id": 594,
  "address1": "서울특별시 성동구 자동차시장길 49",
  "address2": "중랑물재생센터(서울새활용플라자)",
  "latitude": 37.55836487,
  "longitude": 127.0569077,
  "type": "LCD"
 },
 {
  "id": 600,
  "address1": "서울특별시 동대문구 한천로 329",
  "address2": "휘경2동 주민센터",
  "latitude": 37.58991241,
  "longitude": 127.0686798,
  "type": "LCD"
 },
 {
  "id": 601,
  "address1": "서울특별시 동대문구 용두동 65-25",
  "address2": "용신동주민센터",
  "latitude": 37.57594681,
  "longitude": 127.0373612,
  "type": "LCD"
 },
 {
  "id": 602,
  "address1": "서울특별시 동대문구 장한로 25길 2",
  "address2": "장안동 사거리",
  "latitude": 37.57217407,
  "longitude": 127.0713882,
  "type": "LCD"
 },
 {
  "id": 604,
  "address1": "서울특별시 동대문구 전농로3길 23",
  "address2": "답십리초등학교 옆 공원",
  "latitude": 37.56965637,
  "longitude": 127.0559616,
  "type": "LCD"
 },
 {
  "id": 605,
  "address1": "서울특별시 동대문구 천호대로 26",
  "address2": "신설동역8번출구",
  "latitude": 37.57419968,
  "longitude": 127.0264969,
  "type": "LCD"
 },
 {
  "id": 606,
  "address1": "서울특별시 동대문구 겸재로 21",
  "address2": "휘경공고앞",
  "latitude": 37.58462524,
  "longitude": 127.0702896,
  "type": "LCD"
 },
 {
  "id": 607,
  "address1": "서울특별시 동대문구 이문동186-1",
  "address2": "신이문역 2번출구",
  "latitude": 37.60271072,
  "longitude": 127.0678635,
  "type": "LCD"
 },
 {
  "id": 608,
  "address1": "서울특별시 동대문구 전농로 192",
  "address2": "전농삼성아파트",
  "latitude": 37.58131027,
  "longitude": 127.0553436,
  "type": "LCD"
 },
 {
  "id": 609,
  "address1": "서울특별시 동대문구 제기동122-388",
  "address2": "제기2교",
  "latitude": 37.58774567,
  "longitude": 127.037384,
  "type": "LCD"
 },
 {
  "id": 610,
  "address1": "서울특별시 동대문구 답십리동 524-1",
  "address2": "동대문중 교차로",
  "latitude": 37.57308578,
  "longitude": 127.0521622,
  "type": "LCD"
 },
 {
  "id": 612,
  "address1": "서울특별시 동대문구 용두동 237-10 ",
  "address2": "시립동부병원 앞 사거리",
  "latitude": 37.57366562,
  "longitude": 127.0308151,
  "type": "LCD"
 },
 {
  "id": 613,
  "address1": "서울특별시 동대문구 신설동 92-34",
  "address2": "신설동역 10번출구 앞",
  "latitude": 37.57527161,
  "longitude": 127.023468,
  "type": "LCD"
 },
 {
  "id": 614,
  "address1": "서울특별시 동대문구 용두동 237-10",
  "address2": "용두동 사거리",
  "latitude": 37.57768631,
  "longitude": 127.0310135,
  "type": "LCD"
 },
 {
  "id": 615,
  "address1": "서울특별시 동대문구 용두동 696-13 ",
  "address2": "용두동 래미안허브리츠아파트 앞",
  "latitude": 37.57638168,
  "longitude": 127.0351105,
  "type": "LCD"
 },
 {
  "id": 616,
  "address1": " 서울특별시 동대문구 전농동 135-5",
  "address2": "서울시립대 앞",
  "latitude": 37.58256149,
  "longitude": 127.0543671,
  "type": "LCD"
 },
 {
  "id": 617,
  "address1": "서울특별시 동대문구 답십리동 94-2 ",
  "address2": "청솔우성아파트 앞",
  "latitude": 37.57420349,
  "longitude": 127.0576935,
  "type": "LCD"
 },
 {
  "id": 621,
  "address1": "서울특별시 동대문구 사가정로 62",
  "address2": "동대문중학교 옆",
  "latitude": 37.57489014,
  "longitude": 127.0535355,
  "type": "LCD"
 },
 {
  "id": 622,
  "address1": "서울특별시 동대문구 사가정로 119",
  "address2": "전농사거리 교통섬",
  "latitude": 37.57779312,
  "longitude": 127.0578308,
  "type": "LCD"
 },
 {
  "id": 623,
  "address1": "서울특별시 동대문구 서울시립대로 161",
  "address2": "서울시립대 정문 앞",
  "latitude": 37.58369827,
  "longitude": 127.0538559,
  "type": "LCD"
 },
 {
  "id": 624,
  "address1": "서울특별시 동대문구 서울시립대로 31",
  "address2": "전농동 동아아파트 앞",
  "latitude": 37.57418823,
  "longitude": 127.0458908,
  "type": "LCD"
 },
 {
  "id": 625,
  "address1": "서울특별시 동대문구 전농로 34",
  "address2": "답십리초등학교 앞(현대시장 옆)",
  "latitude": 37.56819153,
  "longitude": 127.0571747,
  "type": "LCD"
 },
 {
  "id": 626,
  "address1": "서울특별시 동대문구 장한로6길 95",
  "address2": "군자교 서측 녹지대",
  "latitude": 37.56115341,
  "longitude": 127.0709686,
  "type": "LCD"
 },
 {
  "id": 627,
  "address1": "서울특별시 동대문구 사가정로 240",
  "address2": "장안동삼거리 교통섬",
  "latitude": 37.57863235,
  "longitude": 127.071907,
  "type": "LCD"
 },
 {
  "id": 628,
  "address1": "서울특별시 동대문구 한천로 290",
  "address2": "휘봉고등학교 앞",
  "latitude": 37.58681488,
  "longitude": 127.067543,
  "type": "LCD"
 },
 {
  "id": 630,
  "address1": "서울특별시 동대문구 천호대로 145",
  "address2": "동대문구 보건소",
  "latitude": 37.57485199,
  "longitude": 127.0403061,
  "type": "QR"
 },
 {
  "id": 631,
  "address1": "서울특별시 동대문구 천호대로 269",
  "address2": "답십리역 1번출구",
  "latitude": 37.5681839,
  "longitude": 127.0512772,
  "type": "LCD"
 },
 {
  "id": 633,
  "address1": "서울특별시 동대문구 홍릉로 1",
  "address2": "청량리 기업은행 앞",
  "latitude": 37.58040619,
  "longitude": 127.0448227,
  "type": "LCD"
 },
 {
  "id": 634,
  "address1": "서울특별시 동대문구 이문로 107",
  "address2": "외국어대 정문 앞",
  "latitude": 37.59601974,
  "longitude": 127.0598297,
  "type": "LCD"
 },
 {
  "id": 635,
  "address1": "서울특별시 동대문구 이문로1길 11",
  "address2": "시조사 앞 (청량고정문 옆)",
  "latitude": 37.58751678,
  "longitude": 127.0527725,
  "type": "LCD"
 },
 {
  "id": 636,
  "address1": "서울특별시 동대문구 회기로 56",
  "address2": "세종대왕기념관 교차로",
  "latitude": 37.59090042,
  "longitude": 127.0425873,
  "type": "LCD"
 },
 {
  "id": 637,
  "address1": "서울특별시 동대문구 회기로 85",
  "address2": "KAIST 경영대학 앞",
  "latitude": 37.59161377,
  "longitude": 127.0457916,
  "type": "LCD"
 },
 {
  "id": 638,
  "address1": "서울특별시 동대문구 한천로43길 12-14",
  "address2": "서울시립대 정보기술관",
  "latitude": 37.58300781,
  "longitude": 127.0609741,
  "type": "LCD"
 },
 {
  "id": 639,
  "address1": "서울특별시 동대문구 한천로43길 12-14",
  "address2": "서울시립대 후문",
  "latitude": 37.58519745,
  "longitude": 127.0609512,
  "type": "LCD"
 },
 {
  "id": 640,
  "address1": "서울특별시 동대문구 왕산로 205",
  "address2": "청량리역 2번 출구",
  "latitude": 37.58255005,
  "longitude": 127.0446014,
  "type": "LCD"
 },
 {
  "id": 641,
  "address1": "서울특별시 동대문구 청계천로 563",
  "address2": "용두역 4번출구",
  "latitude": 37.57375336,
  "longitude": 127.0385361,
  "type": "LCD"
 },
 {
  "id": 642,
  "address1": "서울특별시 동대문구 천호대로 231",
  "address2": "신답역 사거리",
  "latitude": 37.57035446,
  "longitude": 127.0484314,
  "type": "QR"
 },
 {
  "id": 643,
  "address1": "서울특별시 동대문구 장안벚꽃로 77",
  "address2": "동대문구민체육센터 (육교아래)",
  "latitude": 37.56697083,
  "longitude": 127.074295,
  "type": "LCD"
 },
 {
  "id": 646,
  "address1": "서울특별시 동대문구 천호대로 405",
  "address2": "장한평역 1번출구 (국민은행앞)",
  "latitude": 37.56196594,
  "longitude": 127.0645065,
  "type": "LCD"
 },
 {
  "id": 647,
  "address1": "서울특별시 동대문구 신이문로 44",
  "address2": "신이문역 1번출구",
  "latitude": 37.60279846,
  "longitude": 127.0672684,
  "type": "LCD"
 },
 {
  "id": 648,
  "address1": "서울특별시 동대문구 한천로 42",
  "address2": "장안동위더스빌옆",
  "latitude": 37.56669998,
  "longitude": 127.0624237,
  "type": "LCD"
 },
 {
  "id": 650,
  "address1": "서울특별시 동대문구 망우로 131",
  "address2": "중랑교사거리",
  "latitude": 37.59153366,
  "longitude": 127.0677414,
  "type": "LCD"
 },
 {
  "id": 652,
  "address1": "동대문구 전농동 6-6",
  "address2": "답십리 래미안엘파인아파트 입구",
  "latitude": 37.57653046,
  "longitude": 127.0659409,
  "type": "LCD"
 },
 {
  "id": 654,
  "address1": "서울특별시 동대문구 사가정로 65",
  "address2": "전농동 텃골공원",
  "latitude": 37.57762146,
  "longitude": 127.0521088,
  "type": "LCD"
 },
 {
  "id": 656,
  "address1": "동대문구 청량리동 199-232",
  "address2": "영휘원 교차로",
  "latitude": 37.58723831,
  "longitude": 127.0431366,
  "type": "LCD"
 },
 {
  "id": 657,
  "address1": "동대문구 답십리로23길 30(전농동 518)",
  "address2": "동대문롯데캐슬아파트 앞",
  "latitude": 37.57551956,
  "longitude": 127.0487747,
  "type": "LCD"
 },
 {
  "id": 658,
  "address1": "동대문구 답십리로 233(답십리동 2-146)",
  "address2": "촬영소 사거리",
  "latitude": 37.57288361,
  "longitude": 127.0660477,
  "type": "LCD"
 },
 {
  "id": 659,
  "address1": "동대문구 용두동 237-10",
  "address2": "제기역1번출구",
  "latitude": 37.57835007,
  "longitude": 127.0333862,
  "type": "LCD"
 },
 {
  "id": 660,
  "address1": "동대문구 왕산로 128",
  "address2": "동의보감타워",
  "latitude": 37.57799911,
  "longitude": 127.0376282,
  "type": "LCD"
 },
 {
  "id": 661,
  "address1": "동대문구 경희대로 26",
  "address2": "경희대학교 청운관",
  "latitude": 37.59460068,
  "longitude": 127.0519714,
  "type": "LCD"
 },
 {
  "id": 663,
  "address1": "동대문구 휘경동 146-42",
  "address2": "외대앞역 4번출구",
  "latitude": 37.59489059,
  "longitude": 127.0630264,
  "type": "LCD"
 },
 {
  "id": 664,
  "address1": "동대문구 서울시립대로 163 서울시립대학교",
  "address2": "서울시립대 건설공학관",
  "latitude": 37.58412933,
  "longitude": 127.0579376,
  "type": "LCD"
 },
 {
  "id": 665,
  "address1": "동대문구 한천로58길 47",
  "address2": "이문동 쌍용아파트 정문",
  "latitude": 37.59960556,
  "longitude": 127.0686417,
  "type": "QR"
 },
 {
  "id": 666,
  "address1": "한천로58길 151",
  "address2": "이문대성유니드아파트 앞",
  "latitude": 37.60362244,
  "longitude": 127.0708313,
  "type": "QR"
 },
 {
  "id": 667,
  "address1": "제기로 126",
  "address2": "청량차도 육교 밑",
  "latitude": 37.58659363,
  "longitude": 127.0469971,
  "type": "QR"
 },
 {
  "id": 668,
  "address1": "동대문구 장안동 469-8 ",
  "address2": "서울축산농협(장안지점)",
  "latitude": 37.56799698,
  "longitude": 127.068779,
  "type": "QR"
 },
 {
  "id": 669,
  "address1": "서울시립대로14",
  "address2": "청계신한신휴플러스앞 삼거리",
  "latitude": 37.57214737,
  "longitude": 127.0446091,
  "type": "QR"
 },
 {
  "id": 670,
  "address1": "망우로74",
  "address2": "삼육서울병원 버스정류장",
  "latitude": 37.58968735,
  "longitude": 127.061409,
  "type": "QR"
 },
 {
  "id": 671,
  "address1": "동대문구 신설동 168-7 ",
  "address2": "대광빌딩",
  "latitude": 37.57734299,
  "longitude": 127.0233765,
  "type": "QR"
 },
 {
  "id": 672,
  "address1": "동대문구 신설동 397-2 ",
  "address2": "대광고등학교",
  "latitude": 37.57875061,
  "longitude": 127.024025,
  "type": "QR"
 },
 {
  "id": 673,
  "address1": "동대문구 제기동 190-11 ",
  "address2": "안암골벽산아파트(후문)",
  "latitude": 37.58407974,
  "longitude": 127.0310364,
  "type": "QR"
 },
 {
  "id": 674,
  "address1": "동대문구 제기동 142-21 ",
  "address2": "고대앞사거리 교통섬",
  "latitude": 37.58655167,
  "longitude": 127.0331421,
  "type": "QR"
 },
 {
  "id": 676,
  "address1": "동대문구 정릉천동로 102",
  "address2": "FITI시험연구원 앞",
  "latitude": 37.58143234,
  "longitude": 127.0354767,
  "type": "QR"
 },
 {
  "id": 677,
  "address1": "청량리역환승센터 횡단보도",
  "address2": "청량리역 4번 5번출구 사이",
  "latitude": 37.5801506,
  "longitude": 127.0457993,
  "type": "QR"
 },
 {
  "id": 678,
  "address1": "동대문구 답십리로69길 93",
  "address2": "장안힐스테이트(아) 앞",
  "latitude": 37.57655716,
  "longitude": 127.0743103,
  "type": "QR"
 },
 {
  "id": 679,
  "address1": "동대문구 사가정로 150 ",
  "address2": "전농SK아파트 앞",
  "latitude": 37.57787704,
  "longitude": 127.0616837,
  "type": "QR"
 },
 {
  "id": 680,
  "address1": "동대문구 이문로 55",
  "address2": "꿈마루어린이도서관 앞",
  "latitude": 37.59238434,
  "longitude": 127.0574112,
  "type": "QR"
 },
 {
  "id": 681,
  "address1": "동대문구 전농로168",
  "address2": "서울특별시 동부교육지원청(육교)",
  "latitude": 37.5798378,
  "longitude": 127.0563736,
  "type": "QR"
 },
 {
  "id": 700,
  "address1": "서울특별시 양천구 목동 559",
  "address2": "KB국민은행 염창역 지점 앞",
  "latitude": 37.5468483,
  "longitude": 126.8727722,
  "type": "LCD"
 },
 {
  "id": 701,
  "address1": "서울특별시 양천구 목동 813",
  "address2": "목동사거리 부근",
  "latitude": 37.53280258,
  "longitude": 126.8639298,
  "type": "LCD"
 },
 {
  "id": 702,
  "address1": "서울특별시 양천구 목동 904-3",
  "address2": "목4동주민센터 옆",
  "latitude": 37.53254318,
  "longitude": 126.8687286,
  "type": "LCD"
 },
 {
  "id": 703,
  "address1": "서울특별시 양천구 목동 451",
  "address2": "오목교역 7번출구 앞",
  "latitude": 37.52362823,
  "longitude": 126.8752441,
  "type": "LCD"
 },
 {
  "id": 704,
  "address1": "서울특별시 양천구 신정동 1095",
  "address2": "남부법원검찰청 교차로",
  "latitude": 37.52325439,
  "longitude": 126.8649063,
  "type": "LCD"
 },
 {
  "id": 706,
  "address1": "서울특별시 양천구 신월동 894",
  "address2": "신정네거리역",
  "latitude": 37.5218811,
  "longitude": 126.8517532,
  "type": "LCD"
 },
 {
  "id": 708,
  "address1": "서울특별시 양천구 신정동 319-3",
  "address2": "서울출입국관리사무소 앞",
  "latitude": 37.51897049,
  "longitude": 126.8699646,
  "type": "LCD"
 },
 {
  "id": 709,
  "address1": "서울특별시 양천구 신정동 760-2",
  "address2": "신정3동 현장민원실 앞",
  "latitude": 37.51158524,
  "longitude": 126.8415604,
  "type": "LCD"
 },
 {
  "id": 710,
  "address1": "신정로 213",
  "address2": "금옥여고보도육교",
  "latitude": 37.50971222,
  "longitude": 126.8441696,
  "type": "QR"
 },
 {
  "id": 711,
  "address1": "서울특별시 양천구 신월동 1063-4",
  "address2": "신일해피트리아파트 앞",
  "latitude": 37.51705933,
  "longitude": 126.8484879,
  "type": "LCD"
 },
 {
  "id": 712,
  "address1": "서울특별시 양천구 신월동 905",
  "address2": "강월초교입구 사거리",
  "latitude": 37.51699829,
  "longitude": 126.8383179,
  "type": "LCD"
 },
 {
  "id": 713,
  "address1": "서울특별시 양천구 신월동 790",
  "address2": "양서중학교 옆",
  "latitude": 37.53304672,
  "longitude": 126.8299561,
  "type": "LCD"
 },
 {
  "id": 714,
  "address1": "서울특별시 양천구 신월동 790",
  "address2": "한국SGI 양천문화회관 앞",
  "latitude": 37.532547,
  "longitude": 126.8308029,
  "type": "LCD"
 },
 {
  "id": 716,
  "address1": "서울특별시 양천구 목동서로 355",
  "address2": "신정6동 주민센터 인근",
  "latitude": 37.51731873,
  "longitude": 126.8643189,
  "type": "LCD"
 },
 {
  "id": 719,
  "address1": "서울특별시 양천구 등촌로 2",
  "address2": "홍익병원앞 교차로",
  "latitude": 37.5303688,
  "longitude": 126.8642578,
  "type": "LCD"
 },
 {
  "id": 720,
  "address1": "서울특별시 양천구 신월로 97",
  "address2": "서울강월초등학교 앞",
  "latitude": 37.5161972,
  "longitude": 126.8348999,
  "type": "LCD"
 },
 {
  "id": 722,
  "address1": "서울특별시 양천구 신월로 328",
  "address2": "경서농협 버스정류장(우리은행신정동지점방향)",
  "latitude": 37.52151108,
  "longitude": 126.8573837,
  "type": "LCD"
 },
 {
  "id": 723,
  "address1": "서울특별시 양천구 목동서로161",
  "address2": "SBS방송국",
  "latitude": 37.52916336,
  "longitude": 126.8727493,
  "type": "LCD"
 },
 {
  "id": 724,
  "address1": "서울특별시 양천구 신정동 621-14",
  "address2": "계남공원 입구 주출입구 좌측",
  "latitude": 37.51068115,
  "longitude": 126.857399,
  "type": "LCD"
 },
 {
  "id": 725,
  "address1": "서울특별시 양천구 남부순환로88길5-16",
  "address2": "양강중학교앞 교차로",
  "latitude": 37.52433395,
  "longitude": 126.8505478,
  "type": "LCD"
 },
 {
  "id": 726,
  "address1": "서울특별시 양천구 목동중앙로 49 ",
  "address2": "목동3단지 시내버스정류장",
  "latitude": 37.5343895,
  "longitude": 126.8695984,
  "type": "LCD"
 },
 {
  "id": 729,
  "address1": "서울특별시 양천구 신정동 236 ",
  "address2": "서부식자재마트 건너편",
  "latitude": 37.51037979,
  "longitude": 126.8667984,
  "type": "LCD"
 },
 {
  "id": 731,
  "address1": "서울특별시 양천구 목동동로 316-6",
  "address2": "서울시 도로환경관리센터",
  "latitude": 37.5298996,
  "longitude": 126.8765411,
  "type": "LCD"
 },
 {
  "id": 732,
  "address1": "서울특별시 양천구 화곡로 59",
  "address2": "신월중학교",
  "latitude": 37.53955078,
  "longitude": 126.8283005,
  "type": "LCD"
 },
 {
  "id": 733,
  "address1": "서울특별시 양천구 신정이펜1로50 ",
  "address2": "신정이펜하우스314동",
  "latitude": 37.51409912,
  "longitude": 126.8310013,
  "type": "LCD"
 },
 {
  "id": 734,
  "address1": "서울특별시 양천구 신정동 310-8 ",
  "address2": "신트리공원 입구",
  "latitude": 37.51395035,
  "longitude": 126.8560562,
  "type": "LCD"
 },
 {
  "id": 735,
  "address1": "서울특별시 양천구 목동중앙로 70 ",
  "address2": "영도초등학교",
  "latitude": 37.53637695,
  "longitude": 126.8715134,
  "type": "LCD"
 },
 {
  "id": 736,
  "address1": "서울특별시 양천구 남부순환로70길11-9",
  "address2": "오솔길공원",
  "latitude": 37.52219009,
  "longitude": 126.8367004,
  "type": "LCD"
 },
 {
  "id": 737,
  "address1": "서울특별시 양천구 신월로 894 ",
  "address2": "장수공원",
  "latitude": 37.52256012,
  "longitude": 126.8494797,
  "type": "LCD"
 },
 {
  "id": 739,
  "address1": "서울특별시 양천구 신월동 263",
  "address2": "신월사거리",
  "latitude": 37.53620148,
  "longitude": 126.8277969,
  "type": "LCD"
 },
 {
  "id": 740,
  "address1": "서울특별시 양천구 가로공원로 133",
  "address2": "으뜸공원",
  "latitude": 37.53636932,
  "longitude": 126.8317108,
  "type": "LCD"
 },
 {
  "id": 741,
  "address1": "서울특별시 양천구 신월동 258",
  "address2": "화곡로 입구 교차로",
  "latitude": 37.53952026,
  "longitude": 126.8254013,
  "type": "LCD"
 },
 {
  "id": 742,
  "address1": "서울특별시 양천구 등촌로 236",
  "address2": "등촌역 5번 출구 뒤",
  "latitude": 37.55073166,
  "longitude": 126.8645783,
  "type": "LCD"
 },
 {
  "id": 743,
  "address1": "서울특별시 양천구 신정동 735-5",
  "address2": "현대6차아파트 101동 옆",
  "latitude": 37.50889969,
  "longitude": 126.8426819,
  "type": "LCD"
 },
 {
  "id": 744,
  "address1": "서울특별시 양천구 목동중앙로 212 앞",
  "address2": "신목동역 2번 출구",
  "latitude": 37.54384232,
  "longitude": 126.8825455,
  "type": "QR"
 },
 {
  "id": 745,
  "address1": "서울특별시 양천구 오목로 31 부근",
  "address2": "강서초등학교",
  "latitude": 37.52228165,
  "longitude": 126.8396988,
  "type": "LCD"
 },
 {
  "id": 746,
  "address1": "서울특별시  양천구 목동 902-5 ",
  "address2": "목동2단지 상가",
  "latitude": 37.53650284,
  "longitude": 126.8777466,
  "type": "LCD"
 },
 {
  "id": 747,
  "address1": "서울특별시 양천구 목동 903-6",
  "address2": "목동3단지 상가",
  "latitude": 37.53458023,
  "longitude": 126.8756485,
  "type": "LCD"
 },
 {
  "id": 748,
  "address1": "서울특별시 양천구 안양천로 939",
  "address2": "목동운동장",
  "latitude": 37.53025055,
  "longitude": 126.879303,
  "type": "LCD"
 },
 {
  "id": 749,
  "address1": "서울특별시 양천구 목동 911-10",
  "address2": "이대목동병원보도육교",
  "latitude": 37.53722763,
  "longitude": 126.8866119,
  "type": "LCD"
 },
 {
  "id": 750,
  "address1": "서울특별시 양천구 신정로7길 92",
  "address2": "연의근린공원 건너편",
  "latitude": 37.51215744,
  "longitude": 126.8356247,
  "type": "LCD"
 },
 {
  "id": 752,
  "address1": "서울특별시 양천구 목동중앙남로 100",
  "address2": "성원2차 아파트",
  "latitude": 37.54218292,
  "longitude": 126.8633041,
  "type": "LCD"
 },
 {
  "id": 754,
  "address1": " 양천구 목동서로 38",
  "address2": "목동1단지아파트 118동 앞 (월촌초등학교 정류소 옆",
  "latitude": 37.54114151,
  "longitude": 126.8766785,
  "type": "LCD"
 },
 {
  "id": 755,
  "address1": "양천구 목동서로 38",
  "address2": "목동1단지아파트 상가 앞 (월촌중학교 버스정류소 옆)",
  "latitude": 37.5378685,
  "longitude": 126.8814087,
  "type": "LCD"
 },
 {
  "id": 756,
  "address1": "양천구 목동동로 298",
  "address2": "목동주차장",
  "latitude": 37.52667999,
  "longitude": 126.8761673,
  "type": "LCD"
 },
 {
  "id": 757,
  "address1": "양천구 신정이펜1로 99",
  "address2": "신정이펜하우스 1단지아파트 입구 사거리",
  "latitude": 37.51427841,
  "longitude": 126.828743,
  "type": "LCD"
 },
 {
  "id": 758,
  "address1": "양천구 목동동로 33",
  "address2": "한사랑교회 앞",
  "latitude": 37.51472092,
  "longitude": 126.8591995,
  "type": "LCD"
 },
 {
  "id": 759,
  "address1": "양천구 오목로3길 32",
  "address2": "보아스아파트 앞",
  "latitude": 37.52407074,
  "longitude": 126.8386002,
  "type": "LCD"
 },
 {
  "id": 760,
  "address1": " 양천구 남부순환로 699",
  "address2": "잣절보도육교 아래",
  "latitude": 37.50682068,
  "longitude": 126.8442993,
  "type": "LCD"
 },
 {
  "id": 762,
  "address1": " 양천구 신목로 126",
  "address2": "오목로 무중력지대 앞",
  "latitude": 37.52474213,
  "longitude": 126.8776627,
  "type": "LCD"
 },
 {
  "id": 763,
  "address1": "목동동로 10",
  "address2": "목동11단지 아파트",
  "latitude": 37.51065826,
  "longitude": 126.8591614,
  "type": "LCD"
 },
 {
  "id": 764,
  "address1": "양천구 목동동로 323",
  "address2": "목동청소년수련관",
  "latitude": 37.53102875,
  "longitude": 126.8758926,
  "type": "LCD"
 },
 {
  "id": 765,
  "address1": "서울특별시 양천구 목동동로 270",
  "address2": "오목교역 3번출구",
  "latitude": 37.52477646,
  "longitude": 126.8754807,
  "type": "LCD"
 },
 {
  "id": 766,
  "address1": "양천구 목동 136-1",
  "address2": "신목동역 3번출구",
  "latitude": 37.54394913,
  "longitude": 126.883461,
  "type": "LCD"
 },
 {
  "id": 767,
  "address1": "양천구 신정로 110",
  "address2": "신정숲속마을아파트",
  "latitude": 37.50574493,
  "longitude": 126.8363113,
  "type": "QR"
 },
 {
  "id": 768,
  "address1": "양천구 목동",
  "address2": "목동5단지아파트 501동",
  "latitude": 37.53566742,
  "longitude": 126.8815842,
  "type": "QR"
 },
 {
  "id": 769,
  "address1": "양천구 목동 917-1",
  "address2": "CBS방송국 앞",
  "latitude": 37.52785492,
  "longitude": 126.8746719,
  "type": "QR"
 },
 {
  "id": 770,
  "address1": "양천구 목동로 186",
  "address2": "목동역5번출구 교통정보센터 앞",
  "latitude": 37.52571487,
  "longitude": 126.8648682,
  "type": "QR"
 },
 {
  "id": 771,
  "address1": "양천구 목동로 186 ",
  "address2": "목동아파트 703동 앞",
  "latitude": 37.52820587,
  "longitude": 126.870163,
  "type": "QR"
 },
 {
  "id": 773,
  "address1": "공항대로 630",
  "address2": "염창역 3, 4번 출구 사이",
  "latitude": 37.54670715,
  "longitude": 126.8745728,
  "type": "QR"
 },
 {
  "id": 774,
  "address1": "양천구 목동 603-2",
  "address2": "등촌역 4번 출구 ",
  "latitude": 37.54950714,
  "longitude": 126.867218,
  "type": "QR"
 },
 {
  "id": 775,
  "address1": "양천구 목동중앙남로3가길 59",
  "address2": "세종그랑시아 앞(102동)",
  "latitude": 37.53837585,
  "longitude": 126.8638306,
  "type": "QR"
 },
 {
  "id": 776,
  "address1": "양평교 하부",
  "address2": "목마공원",
  "latitude": 37.53874207,
  "longitude": 126.8856812,
  "type": "QR"
 },
 {
  "id": 777,
  "address1": "양천구 곰달래로7길 7",
  "address2": "신월6차보람아파트 앞",
  "latitude": 37.53012848,
  "longitude": 126.8347778,
  "type": "QR"
 },
 {
  "id": 779,
  "address1": "양천구 중앙로 250",
  "address2": "양천나눔누리센터",
  "latitude": 37.51854324,
  "longitude": 126.8538818,
  "type": "QR"
 },
 {
  "id": 780,
  "address1": "양천구 신정동 871-37",
  "address2": "신정교 하부",
  "latitude": 37.5173378,
  "longitude": 126.8776474,
  "type": "QR"
 },
 {
  "id": 781,
  "address1": "양천구 신목로 10",
  "address2": "신정보도육교 아래",
  "latitude": 37.51759338,
  "longitude": 126.8765564,
  "type": "QR"
 },
 {
  "id": 782,
  "address1": "양천구 신정이펜1로 20",
  "address2": "서남병원 후문",
  "latitude": 37.51167297,
  "longitude": 126.8327408,
  "type": "QR"
 },
 {
  "id": 785,
  "address1": "양천구 신정동 321-8",
  "address2": "양천구청, 보건소 사잇길",
  "latitude": 37.51732635,
  "longitude": 126.8663025,
  "type": "QR"
 },
 {
  "id": 786,
  "address1": "양천구 목동서로 280",
  "address2": "목동아파트 8단지 상가동 앞",
  "latitude": 37.52007294,
  "longitude": 126.86830140000001,
  "type": "QR"
 },
 {
  "id": 787,
  "address1": "양천구 목동로3길 41",
  "address2": "양천아파트 입구",
  "latitude": 37.50790405,
  "longitude": 126.862648,
  "type": "QR"
 },
 {
  "id": 788,
  "address1": "양천구 목동로3길 57",
  "address2": "양천구청역 2번출구 옆",
  "latitude": 37.51228714,
  "longitude": 126.8652802,
  "type": "QR"
 },
 {
  "id": 790,
  "address1": "양천구 신월동 455-5 ",
  "address2": "화곡고가 사거리",
  "latitude": 37.52760696,
  "longitude": 126.8487549,
  "type": "QR"
 },
 {
  "id": 791,
  "address1": "오목로300(205동앞 서쪽방향)",
  "address2": "현대하이페리온",
  "latitude": 37.52490616,
  "longitude": 126.8697891,
  "type": "QR"
 },
 {
  "id": 792,
  "address1": "오목로299(이마트 출입구측)",
  "address2": "목동트라팰리스 웨스턴에비뉴",
  "latitude": 37.52537155,
  "longitude": 126.8709259,
  "type": "QR"
 },
 {
  "id": 793,
  "address1": "서울특별시 양천구 목동동로 350 목동신시가지아파트5단지",
  "address2": "목동5단지아파트 534동",
  "latitude": 37.53302002,
  "longitude": 126.8778992,
  "type": "QR"
 },
 {
  "id": 794,
  "address1": "양천구 신정동 323-1",
  "address2": "양천문화회관",
  "latitude": 37.51686478,
  "longitude": 126.8629608,
  "type": "QR"
 },
 {
  "id": 795,
  "address1": "양천구 신정동 327-4",
  "address2": "양천 해누리타운",
  "latitude": 37.51584244,
  "longitude": 126.8641129,
  "type": "QR"
 },
 {
  "id": 796,
  "address1": "양천구 신정동 330",
  "address2": "목동아파트 14단지 B상가 앞",
  "latitude": 37.5146637,
  "longitude": 126.8719406,
  "type": "QR"
 },
 {
  "id": 797,
  "address1": "양천구 신정동 332-2",
  "address2": "목동아파트 1422동 1434동 사잇길",
  "latitude": 37.51515579,
  "longitude": 126.8724899,
  "type": "QR"
 },
 {
  "id": 800,
  "address1": "서울특별시 용산구 원효로4가 109-10",
  "address2": "목월공원 앞",
  "latitude": 37.53243256,
  "longitude": 126.9547424,
  "type": "LCD"
 },
 {
  "id": 802,
  "address1": "서울특별시 용산구 한남동 726-494",
  "address2": "한강진역 2번 출구 앞",
  "latitude": 37.54115295,
  "longitude": 127.0022125,
  "type": "LCD"
 },
 {
  "id": 803,
  "address1": "서울특별시 용산구 한남동 725-17",
  "address2": "한남초교 앞 보도육교",
  "latitude": 37.53813934,
  "longitude": 127.004097,
  "type": "LCD"
 },
 {
  "id": 805,
  "address1": "서울특별시 용산구 문배동 34-10",
  "address2": "문배어린이공원 앞",
  "latitude": 37.53675842,
  "longitude": 126.9700012,
  "type": "LCD"
 },
 {
  "id": 806,
  "address1": "서울특별시 용산구 한강로3가 16-8",
  "address2": "전자랜드 본관 앞",
  "latitude": 37.5330658,
  "longitude": 126.9607315,
  "type": "LCD"
 },
 {
  "id": 807,
  "address1": "서울특별시 용산구 동자동 14-229",
  "address2": "서울역 12번 출구 앞",
  "latitude": 37.55227661,
  "longitude": 126.9726868,
  "type": "LCD"
 },
 {
  "id": 808,
  "address1": "서울특별시 용산구 서빙고동 235-5",
  "address2": "서빙고동 금호맨션 앞",
  "latitude": 37.520504,
  "longitude": 126.9897385,
  "type": "LCD"
 },
 {
  "id": 809,
  "address1": "서울특별시 용산구 독서당로 18",
  "address2": "한남 유수지 복개주차장",
  "latitude": 37.53016663,
  "longitude": 127.0074387,
  "type": "LCD"
 },
 {
  "id": 810,
  "address1": "서울특별시 용산구 용산동2가 5-1812",
  "address2": "이태원지하보도",
  "latitude": 37.53841019,
  "longitude": 126.9866486,
  "type": "LCD"
 },
 {
  "id": 811,
  "address1": "서울특별시 용산구 용산동2가 6-7",
  "address2": "녹사평역1번출구",
  "latitude": 37.53507996,
  "longitude": 126.9853821,
  "type": "LCD"
 },
 {
  "id": 812,
  "address1": "서울특별시 용산구 용산동1가 8-4",
  "address2": "용산전쟁기념관",
  "latitude": 37.53483963,
  "longitude": 126.9776611,
  "type": "LCD"
 },
 {
  "id": 813,
  "address1": "서울특별시 용산구 한강로1가 228-1",
  "address2": "삼각지역 3번출구",
  "latitude": 37.53351212,
  "longitude": 126.9722748,
  "type": "LCD"
 },
 {
  "id": 815,
  "address1": "서울특별시 용산구 이촌동301-5",
  "address2": "LIG강촌아파트 103동앞",
  "latitude": 37.51850891,
  "longitude": 126.9787979,
  "type": "LCD"
 },
 {
  "id": 816,
  "address1": "서울특별시 용산구 한강대로 115",
  "address2": "신용산역 6번출구 앞",
  "latitude": 37.53014755,
  "longitude": 126.968483,
  "type": "LCD"
 },
 {
  "id": 817,
  "address1": "서울특별시 용산구 한강대로 161",
  "address2": "삼각지역 4번출구 앞",
  "latitude": 37.53345108,
  "longitude": 126.9717331,
  "type": "LCD"
 },
 {
  "id": 818,
  "address1": "서울특별시 용산구 청파로47길 100",
  "address2": "숙명여대 입구 교차로",
  "latitude": 37.54489517,
  "longitude": 126.9693832,
  "type": "LCD"
 },
 {
  "id": 819,
  "address1": "서울특별시 용산구 원효로97길 33-4",
  "address2": "선린인터넷 고등학교",
  "latitude": 37.54165268,
  "longitude": 126.9705048,
  "type": "LCD"
 },
 {
  "id": 820,
  "address1": "서울특별시 용산구 한강대로 349",
  "address2": "청파동입구 교차로",
  "latitude": 37.54902649,
  "longitude": 126.9719467,
  "type": "LCD"
 },
 {
  "id": 822,
  "address1": "서울특별시 용산구 이촌로 219",
  "address2": "이촌1동 마을공원",
  "latitude": 37.52204132,
  "longitude": 126.9655228,
  "type": "LCD"
 },
 {
  "id": 823,
  "address1": "서울특별시 용산구 효창동 255-17 임",
  "address2": "효창동주민센터 앞",
  "latitude": 37.54232025,
  "longitude": 126.9619598,
  "type": "LCD"
 },
 {
  "id": 825,
  "address1": "서울특별시 용산구 서빙고로 279",
  "address2": "서빙고동 주민센터 앞",
  "latitude": 37.52033615,
  "longitude": 126.9942627,
  "type": "LCD"
 },
 {
  "id": 826,
  "address1": "서울특별시 중구 만리동1가 22-1",
  "address2": "서울역 서부교차로2",
  "latitude": 37.55536652,
  "longitude": 126.9686432,
  "type": "LCD"
 },
 {
  "id": 827,
  "address1": "서울특별시 용산구 두텁바위로 54-99",
  "address2": "국군복지단",
  "latitude": 37.54188538,
  "longitude": 126.97966,
  "type": "LCD"
 },
 {
  "id": 828,
  "address1": "서울특별시 용산구 한강대로 289",
  "address2": "숙대입구역 8번",
  "latitude": 37.54407883,
  "longitude": 126.9720001,
  "type": "LCD"
 },
 {
  "id": 829,
  "address1": "서울특별시 용산구 한강대로 23",
  "address2": "베르가모앞",
  "latitude": 37.52293015,
  "longitude": 126.9616928,
  "type": "LCD"
 },
 {
  "id": 830,
  "address1": "서울특별시 용산구 원효로 35",
  "address2": "청암자이아파트앞",
  "latitude": 37.53442383,
  "longitude": 126.9485703,
  "type": "LCD"
 },
 {
  "id": 831,
  "address1": "서울특별시 용산구 이태원로 134",
  "address2": "이태원관광특구입구",
  "latitude": 37.53427887,
  "longitude": 126.9885635,
  "type": "LCD"
 },
 {
  "id": 832,
  "address1": "서울특별시 용산구 이촌로71길 24",
  "address2": "이촌1동 주민센터 뒤",
  "latitude": 37.5212822,
  "longitude": 126.973465,
  "type": "LCD"
 },
 {
  "id": 834,
  "address1": "서울특별시 용산구 백범로 지하 287",
  "address2": "효창공원앞역 3번출구 뒤",
  "latitude": 37.53900909,
  "longitude": 126.96138,
  "type": "LCD"
 },
 {
  "id": 835,
  "address1": "서울특별시 용산구 한강대로77길 18",
  "address2": "남영역 건너편",
  "latitude": 37.54198074,
  "longitude": 126.9715424,
  "type": "LCD"
 },
 {
  "id": 836,
  "address1": "서울특별시 용산구 원효로 74",
  "address2": "현대자동차서비스 앞",
  "latitude": 37.53142166,
  "longitude": 126.9514999,
  "type": "LCD"
 },
 {
  "id": 837,
  "address1": "서울특별시 용산구 서빙고로 417",
  "address2": "한남나들목 입구",
  "latitude": 37.52906036,
  "longitude": 127.0067291,
  "type": "LCD"
 },
 {
  "id": 838,
  "address1": "서울특별시 용산구 남영동 19-8",
  "address2": "숙대입구역 4번출구",
  "latitude": 37.5444603,
  "longitude": 126.9723892,
  "type": "LCD"
 },
 {
  "id": 839,
  "address1": "용산구 보광로5길 40",
  "address2": "보광동 삼성리버빌아파트 앞",
  "latitude": 37.5240097,
  "longitude": 127.0014496,
  "type": "LCD"
 },
 {
  "id": 840,
  "address1": "용산구 서빙고로 67",
  "address2": "용산 파크타워 앞",
  "latitude": 37.52365112,
  "longitude": 126.9702683,
  "type": "LCD"
 },
 {
  "id": 841,
  "address1": "용산구 한강대로 100",
  "address2": "신용산역 1번 출구",
  "latitude": 37.52960968,
  "longitude": 126.9688721,
  "type": "QR"
 },
 {
  "id": 843,
  "address1": "용산구 이태원로 134",
  "address2": "녹사평역 광장",
  "latitude": 37.53379822,
  "longitude": 126.9886704,
  "type": "LCD"
 },
 {
  "id": 844,
  "address1": "용산구 이촌로14길 7",
  "address2": "이촌2동 동원베네스트 아파트 앞",
  "latitude": 37.5271492,
  "longitude": 126.9551621,
  "type": "LCD"
 },
 {
  "id": 845,
  "address1": "용산구 한강로3가 3-42",
  "address2": "용산 선인상가",
  "latitude": 37.53269958,
  "longitude": 126.9643784,
  "type": "LCD"
 },
 {
  "id": 846,
  "address1": "  용산구 후암동 260",
  "address2": "용산중학교",
  "latitude": 37.54650116,
  "longitude": 126.9809494,
  "type": "LCD"
 },
 {
  "id": 848,
  "address1": "한강로1가 24-7 ",
  "address2": " 삼각지12번 출구",
  "latitude": 37.53488922,
  "longitude": 126.9756241,
  "type": "QR"
 },
 {
  "id": 849,
  "address1": "한강로1가 80-11 ",
  "address2": " 삼각지 자이아파트",
  "latitude": 37.53607941,
  "longitude": 126.9734192,
  "type": "QR"
 },
 {
  "id": 850,
  "address1": "백범로90길 90",
  "address2": " KCC용산월츠타워 ",
  "latitude": 37.53739929,
  "longitude": 126.9689255,
  "type": "QR"
 },
 {
  "id": 851,
  "address1": "백범로 260",
  "address2": "효창 푸르지오 앞",
  "latitude": 37.54047775,
  "longitude": 126.9581146,
  "type": "QR"
 },
 {
  "id": 852,
  "address1": "청암동 92-1 ",
  "address2": "청암자이APT(103동)",
  "latitude": 37.53452682,
  "longitude": 126.9471817,
  "type": "QR"
 },
 {
  "id": 853,
  "address1": "한강로2가 408-5 ",
  "address2": "용산역 맞은편",
  "latitude": 37.52856827,
  "longitude": 126.9656906,
  "type": "QR"
 },
 {
  "id": 854,
  "address1": "이태원로 271",
  "address2": "HID 유족동지회 앞",
  "latitude": 37.53872681,
  "longitude": 127.0015488,
  "type": "QR"
 },
 {
  "id": 855,
  "address1": " 서빙고로 83",
  "address2": "이촌역5번출구 앞",
  "latitude": 37.52272415,
  "longitude": 126.9727707,
  "type": "QR"
 },
 {
  "id": 857,
  "address1": "이태원로 217",
  "address2": " 현대 안성타워",
  "latitude": 37.53502274,
  "longitude": 126.9980545,
  "type": "QR"
 },
 {
  "id": 858,
  "address1": "용산동4가 1-1",
  "address2": "녹사평역3번 출구",
  "latitude": 37.53440857,
  "longitude": 126.9868927,
  "type": "QR"
 },
 {
  "id": 859,
  "address1": "이태원동 259-16",
  "address2": "남산공원 야외식물원 앞",
  "latitude": 37.54188538,
  "longitude": 126.9958649,
  "type": "QR"
 },
 {
  "id": 860,
  "address1": "용산구 이촌동 429 ",
  "address2": "LG한강 자이아파트 앞",
  "latitude": 37.52074814,
  "longitude": 126.9708252,
  "type": "QR"
 },
 {
  "id": 863,
  "address1": "용산동5가 17",
  "address2": "이촌역2번 출구",
  "latitude": 37.52177048,
  "longitude": 126.977005,
  "type": "QR"
 },
 {
  "id": 864,
  "address1": "한남동 705-5 (한남대로)",
  "address2": "순천향대학병원(한남오거리)",
  "latitude": 37.53514099,
  "longitude": 127.0060043,
  "type": "QR"
 },
 {
  "id": 865,
  "address1": "한남동 산 10-138\n (소월로)",
  "address2": "하얏트호텔 앞",
  "latitude": 37.54079437,
  "longitude": 126.9978485,
  "type": "QR"
 },
 {
  "id": 866,
  "address1": "후암동 458",
  "address2": "브라운스톤 남산아파트",
  "latitude": 37.551548,
  "longitude": 126.9768601,
  "type": "QR"
 },
 {
  "id": 867,
  "address1": "서빙고동241-14",
  "address2": "서빙고역 광장(1번출구)",
  "latitude": 37.51990891,
  "longitude": 126.9892349,
  "type": "QR"
 },
 {
  "id": 869,
  "address1": "서울특별시 용산구 이촌동 303-8",
  "address2": "노들섬 동측 앞",
  "latitude": 37.51729584,
  "longitude": 126.9591446,
  "type": "QR"
 },
 {
  "id": 870,
  "address1": "서울특별시 용산구 이촌동 304-11",
  "address2": "노들섬 서측 앞",
  "latitude": 37.51731873,
  "longitude": 126.9582977,
  "type": "QR"
 },
 {
  "id": 900,
  "address1": "서울특별시 은평구 녹번동 85-4",
  "address2": "은평예술회관",
  "latitude": 37.60394287,
  "longitude": 126.9276962,
  "type": "LCD"
 },
 {
  "id": 902,
  "address1": "서울특별시 은평구 진관동 45-21",
  "address2": "진관동 은빛초등학교",
  "latitude": 37.64310837,
  "longitude": 126.9182205,
  "type": "LCD"
 },
 {
  "id": 903,
  "address1": "서울특별시 은평구 진관동 13-20",
  "address2": "은평뉴타운 아이파크",
  "latitude": 37.64586639,
  "longitude": 126.9273911,
  "type": "LCD"
 },
 {
  "id": 904,
  "address1": "서울특별시 은평구 진관동 5-8",
  "address2": "은평뉴타운 푸르지오",
  "latitude": 37.64867401,
  "longitude": 126.9307022,
  "type": "LCD"
 },
 {
  "id": 905,
  "address1": "서울특별시 은평구 진관동 86-31",
  "address2": "구파발역 2번출구",
  "latitude": 37.63623428,
  "longitude": 126.9189987,
  "type": "QR"
 },
 {
  "id": 906,
  "address1": "서울특별시 은평구 대조동 207-8",
  "address2": "연신내역 5번출구150M 아래",
  "latitude": 37.61721039,
  "longitude": 126.9195786,
  "type": "LCD"
 },
 {
  "id": 907,
  "address1": "서울특별시 은평구 역촌동 43-11",
  "address2": "CJ 드림시티",
  "latitude": 37.59949112,
  "longitude": 126.9168625,
  "type": "LCD"
 },
 {
  "id": 908,
  "address1": "서울특별시 은평구 갈현동 536-8",
  "address2": "구산역 4번출구",
  "latitude": 37.61318588,
  "longitude": 126.9173508,
  "type": "LCD"
 },
 {
  "id": 909,
  "address1": "서울특별시 은평구 응암동 761-9",
  "address2": "백련산 힐스테이트 3차",
  "latitude": 37.58699417,
  "longitude": 126.9228821,
  "type": "LCD"
 },
 {
  "id": 911,
  "address1": "서울특별시 은평구 녹번동 153-31",
  "address2": "은평평화공원(역촌역4번출구)",
  "latitude": 37.60558319,
  "longitude": 126.9229355,
  "type": "LCD"
 },
 {
  "id": 912,
  "address1": "서울특별시 은평구 응암동 604-5",
  "address2": "응암오거리",
  "latitude": 37.58966064,
  "longitude": 126.9169464,
  "type": "LCD"
 },
 {
  "id": 913,
  "address1": "서울특별시 은평구 응암동 90-15",
  "address2": "이마트 버스정류장(서부경찰서 방면)",
  "latitude": 37.60070038,
  "longitude": 126.9201279,
  "type": "LCD"
 },
 {
  "id": 914,
  "address1": "서울특별시 은평구 응암동 610-3",
  "address2": "새절역 2번출구",
  "latitude": 37.59079742,
  "longitude": 126.9136505,
  "type": "LCD"
 },
 {
  "id": 915,
  "address1": "서울특별시 은평구 증산동 199-8",
  "address2": "증산역 4번출구",
  "latitude": 37.5843811,
  "longitude": 126.9098969,
  "type": "LCD"
 },
 {
  "id": 916,
  "address1": "서울특별시 은평구 역촌동 15-40",
  "address2": "평생학습관 앞",
  "latitude": 37.60784912,
  "longitude": 126.9213257,
  "type": "LCD"
 },
 {
  "id": 917,
  "address1": "서울특별시 은평구 녹번동 55",
  "address2": "녹번역 4번출구",
  "latitude": 37.60078049,
  "longitude": 126.9352112,
  "type": "QR"
 },
 {
  "id": 919,
  "address1": "서울특별시 은평구 녹번동 15-2",
  "address2": "서울혁신파크",
  "latitude": 37.60702515,
  "longitude": 126.9333115,
  "type": "LCD"
 },
 {
  "id": 921,
  "address1": "서울특별시 은평구 진관동 242-14",
  "address2": "신도고등학교",
  "latitude": 37.63001633,
  "longitude": 126.9190292,
  "type": "LCD"
 },
 {
  "id": 922,
  "address1": "서울특별시 은평구 대조동 227-2",
  "address2": "연신내역 4번출구",
  "latitude": 37.61780167,
  "longitude": 126.9219666,
  "type": "LCD"
 },
 {
  "id": 923,
  "address1": "서울특별시 은평구 불광동 355",
  "address2": "국민은행 연서지점",
  "latitude": 37.62094879,
  "longitude": 126.9256363,
  "type": "LCD"
 },
 {
  "id": 924,
  "address1": "서울특별시 은평구 진관동 161-9",
  "address2": "메뚜기다리",
  "latitude": 37.62851715,
  "longitude": 126.9295807,
  "type": "LCD"
 },
 {
  "id": 925,
  "address1": "서울특별시 은평구 불광동 285-43",
  "address2": "불광역 2번출구",
  "latitude": 37.60956573,
  "longitude": 126.9309769,
  "type": "LCD"
 },
 {
  "id": 927,
  "address1": "서울특별시 은평구 불광동 304-5",
  "address2": "연신내역 3번출구 인근",
  "latitude": 37.61785507,
  "longitude": 126.9225235,
  "type": "LCD"
 },
 {
  "id": 928,
  "address1": "서울특별시 은평구 진관동 133-29",
  "address2": "은평역사한옥박물관",
  "latitude": 37.64131546,
  "longitude": 126.9380417,
  "type": "LCD"
 },
 {
  "id": 930,
  "address1": "서울특별시 은평구 역촌동 41-7",
  "address2": "구 서부경찰서 건너편",
  "latitude": 37.60166168,
  "longitude": 126.9203033,
  "type": "LCD"
 },
 {
  "id": 931,
  "address1": "서울특별시 은평구 역촌동 45-34",
  "address2": "역촌파출소",
  "latitude": 37.60473633,
  "longitude": 126.9153366,
  "type": "LCD"
 },
 {
  "id": 932,
  "address1": "서울특별시 은평구 연서로 117",
  "address2": "예일여중",
  "latitude": 37.61000443,
  "longitude": 126.9163971,
  "type": "LCD"
 },
 {
  "id": 933,
  "address1": "서울특별시 은평구 서오릉로 163",
  "address2": "역촌종합시장 버스정류장(예일여고 방면)",
  "latitude": 37.61248398,
  "longitude": 126.9148789,
  "type": "LCD"
 },
 {
  "id": 934,
  "address1": "서울특별시 은평구 신사동 41-3",
  "address2": "신사동 성당",
  "latitude": 37.59714127,
  "longitude": 126.9095993,
  "type": "LCD"
 },
 {
  "id": 937,
  "address1": "서울특별시 은평구 진관동 30-23",
  "address2": "상림마을 롯데캐슬2단지 옆",
  "latitude": 37.64585114,
  "longitude": 126.9237976,
  "type": "LCD"
 },